name,gmap_id,latitude,longitude,stars,review_count,hours_Monday,hours_Tuesday,hours_Wednesday,hours_Thursday,hours_Friday,hours_Saturday,hours_Sunday,city,ZIP Code
Sprezzatura,0x8834f322e1faf049:0x714d4c3968d26b57,40.4798429,-79.9712776,4.9,32,Closed,Closed,00:00–19:00,17:00–21:00,17:00–21:00,17:00–21:00,Closed,Pittsburgh,15209
Sprezzatura,0x8834f322e1faf049:0x714d4c3968d26b57,40.4798429,-79.9712776,4.9,32,Closed,Closed,00:00–19:00,17:00–21:00,17:00–21:00,17:00–21:00,Closed,Pittsburgh,15209
Ledo Pizza,0x89c99f2588c5d83f:0xa1e6dd675cd1b0d3,39.927437,-77.63077,4.0,48,11:00–21:00,11:00–21:00,11:00–21:00,11:00–21:00,11:00–22:00,11:00–22:00,11:00–21:00,Chambersburg,17202
Trios Fresh Italian,0x89c6c72f62569479:0x861f3c72038cc45f,39.970723799999995,-75.15773879999999,3.7,33,10:00–23:00,10:00–23:00,10:00–23:00,10:00–23:00,10:00–02:00,10:00–02:00,10:00–23:00,Philadelphia,19123
Chiaro's Pizzeria & Restaurant Pennsburg,0x89c427b3ec5af585:0xa6695fdecdd16ee5,40.3990478,-75.4976949,2.7,28,11:00–20:00,11:00–20:00,11:00–20:00,11:00–20:00,11:00–21:00,11:00–21:00,11:00–20:00,Pennsburg,18073
Monte Cello's of Baden,0x883465a4025a8443:0x5f14a33a02b84021,40.6387797,-80.23115109999999,4.9,25,Closed,11:00–21:00,11:00–21:00,11:00–21:00,11:00–21:00,11:00–21:00,11:00–20:00,Baden,15005
Top Notch Pizza,0x89c50fc672170849:0xf78192e168814244,41.1965631,-75.93264719999999,4.3,16,Closed,Closed,Closed,Closed,16:00–21:00,16:00–21:00,Closed,Sugar Notch,18706
South Philly Italian Kitchen,0x89c6b9a5f1afaaab:0xc1063d9360ac000d,40.0541318,-75.1943977,4.4,55,Closed,17:00–21:00,17:00–21:00,17:00–21:00,5–9:30PM,5–9:30PM,4–8:30PM,Philadelphia,19119
The Roosevelt Building,0x8834f15641e35b61:0x9769a22b55e105a3,40.442995599999996,-80.00210679999999,3.5,14,8:30AM–5PM,8:30AM–5PM,8:30AM–5PM,8:30AM–5PM,8:30AM–5PM,Closed,Closed,Pittsburgh,15222
Lucchesi's Restaurant,0x88351d0f882deddf:0x594e0b1896f2bf18,40.161198999999996,-79.88374,4.8,64,Closed,Closed,Closed,17:00–21:00,17:00–21:00,17:00–21:00,Closed,Monessen,15062
Villa Fresh Italian Kitchen,0x88339f1cf261852f:0x585ab9cecde549e2,41.1398611,-80.15684259999999,4.0,25,10:00–21:00,10:00–21:00,10:00–21:00,10:00–21:00,10:00–21:00,10:00–21:00,11:00–18:00,Grove City,16127
Pizzaiola,0x89c63c51ae6ce091:0x14244b96b711f780,40.084210999999996,-76.215368,4.0,58,10:00–22:00,10:00–22:00,10:00–22:00,10:00–22:00,10:00–23:00,10:00–23:00,11:00–21:00,Leola,17540
Giovanni's,0x8833c168aa80cc75:0xf92c45a8a09385a5,41.232946899999995,-80.4844181,4.6,14,Closed,11:00–20:00,11:00–20:00,11:00–20:00,11:00–21:00,11:00–21:00,Closed,Sharon,16146
Reeds Pizza Restaurant,0x883330f2c8914771:0x12c967cd0626c7d6,41.2355872,-79.5369412,3.8,8,Closed,Closed,Closed,Closed,4:30–8PM,4:30–8PM,Closed,Knox,16232
Mama's Restaurant,0x88327b0d57403067:0x337096276c38fc3,42.0284045,-80.2590953,4.5,16,11:00–21:00,11:00–21:00,11:00–21:00,11:00–21:00,11:00–21:00,11:00–21:00,11:00–21:00,Fairview,16415
Sbarro,0x89c8c20f8b153e31:0xce2e1123a4986936,40.222671,-76.934039,3.4,28,10:00–21:00,10:00–21:00,10:00–21:00,10:00–21:00,10:00–21:00,10:00–21:00,11:00–18:00,Camp Hill,17011
Sal's Italian Ristorante and Pizzeria,0x89c6f4d709fc03f9:0xb7eb806b16d462db,40.049846099999996,-75.6639825,4.4,105,Closed,10:00–22:00,10:00–22:00,10:00–22:00,10:00–23:00,10:00–23:00,11AM–9:30PM,Exton,19341
Napoli Pizza,0x89c6866a40550965:0x9bc4a558733857ac,40.2449148,-75.64252789999999,4.0,3,11:00–21:00,11:00–21:00,11:00–21:00,11:00–21:00,11:00–21:00,11:00–21:00,11:00–21:00,Pottstown,19464
Clementina's Pizzeria & Ristorante,0x89c9add5a1e5275d:0x24681d0392e2edd8,39.8220921,-77.2722132,4.3,38,Closed,11AM–8:30PM,11AM–8:30PM,11AM–8:30PM,11:00–21:00,11:00–21:00,11AM–8:30PM,Gettysburg,17325
Trattoria Valona,0x89c6af95cf59c2f1:0xd818f2dffba99dcb,40.1705417,-75.1115738,4.9,16,10:00–21:00,10:00–21:00,10:00–21:00,10:00–21:00,10:00–22:00,10:00–22:00,00:00–20:00,Hatboro,19040
Amis Trattoria,0x89c695e79f965fbf:0x6cc95c2e1cc9c156,40.045269499999996,-75.4218179,4.3,7,16:00–21:00,16:00–21:00,16:00–21:00,16:00–21:00,16:00–21:00,00:00–21:00,00:00–21:00,Devon,19333
Caruso's Ristorante Italiano,0x89c6ae685bdbfcf9:0xf0de1adc69fee3a9,40.180399799999996,-75.0861001,4.6,88,Closed,Closed,16:00–20:00,16:00–20:00,16:00–21:00,16:00–21:00,16:00–20:00,Hatboro,19040
Rob's Pizza,0x8834c142b47ddbd7:0x636b6c4741b7cd7f,40.426201999999996,-79.671088,4.2,48,11:00–19:00,11:00–19:00,11:00–19:00,11:00–19:00,11:00–20:00,11:00–20:00,Closed,Murrysville,15668
Luciano's Pizzeria & Ristorante,0x89c69b8e83e22a45:0x1ccc77062a580dfb,40.219943099999995,-75.5074245,4.6,38,Closed,10:30AM–10PM,10:30AM–10PM,10:30AM–10PM,10:30AM–10PM,10:30AM–10PM,11:00–21:00,Royersford,19468
Villa Fresh Italian Kitchen,0x88348ca06aae511f:0xf338458da588cf3a,40.543438099999996,-80.0085581,4.4,18,10:00–21:00,10:00–21:00,10:00–21:00,10:00–21:00,10:00–21:00,10:00–21:00,11:00–18:00,Pittsburgh,15237
Briano's Italiano,0x89c67131d7f0e907:0xe98416bf5936470,40.2924003,-75.9783477,4.8,58,Closed,11:00–21:00,11:00–21:00,11:00–21:00,11:00–21:00,11:00–21:00,11:00–21:00,Mohnton,19540
Generations a Restaurant,0x88353e2ee535c2bf:0x13f2d94af52c90f2,39.9009242,-79.732473,4.3,25,Closed,17:00–21:00,17:00–21:00,17:00–21:00,17:00–21:00,17:00–21:00,Closed,Uniontown,15401
Fox's Pizza Den,0x8834914a1087c9e5:0xae5e17660935286c,40.6082302,-79.8331458,3.9,56,10:00–21:00,10:00–21:00,10:00–21:00,10:00–21:00,10:00–22:00,10:00–22:00,11:00–21:00,Russellton,15076
Parmigiana,0x89c6c9235f11b0d3:0x10983638e897e7b5,39.9633909,-75.1468081,4.8,28,Closed,4:30–9PM,4:30–9PM,4:30–9PM,4:30–9PM,4:30–9PM,4:30–9PM,Philadelphia,19123
New Holiday Express Pizza,0x89c6b9e8175d4667:0xee8029bfbbab1beb,40.060845,-75.16739,3.7,98,11:00–22:00,11:00–22:00,11:00–22:00,11:00–22:00,11:00–23:00,11:00–23:00,00:00–22:00,Philadelphia,19150
Pizata,0x89c6944a6640a471:0x91d756b082120344,40.088211799999996,-75.3914333,4.5,16,11:00–21:00,11:00–21:00,11:00–21:00,11:00–21:00,11:00–21:00,11:00–21:00,11:00–21:00,King of Prussia,19406
Rocco's Pizza,0x89cf155e2083a883:0x2ac48227bd33ba3,40.8420446,-76.8509059,4.3,116,11:00–21:00,11:00–21:00,11:00–21:00,11:00–21:00,11:00–22:00,11:00–22:00,00:00–20:00,Selinsgrove,17870
Cosimo's Pizza Inc,0x89c6b03abbe39233:0xe3ecb717b48d1cb8,40.1405057,-75.1232978,2.5,48,11:00–21:00,11:00–21:00,11:00–21:00,11:00–21:00,11:00–21:00,11:00–21:00,11:00–18:00,Willow Grove,19090
Woodstreet Grill,0x89ccb3a12f17996b:0xc8758b8d34e06dff,41.0016053,-79.3320239,2.0,1,07:00–19:00,07:00–19:00,07:00–19:00,07:00–20:00,07:00–20:00,06:00–15:00,07:00–14:00,New Bethlehem,16242
Di Mario's Railroad St Cafe,0x883457ef4e8faa7b:0x1b1bfc1e281e4ea9,40.3582798,-80.1102066,4.1,38,07:00–02:00,07:00–02:00,07:00–02:00,07:00–02:00,07:00–02:00,07:00–02:00,07:00–02:00,Bridgeville,15017
Momentos Pizza,0x89c6c82b4293d8d1:0xdfdd5e81d55fe1e0,39.9879829,-75.1093052,4.3,115,11:00–00:00,11:00–00:00,11:00–00:00,11:00–00:00,11:00–00:00,11:00–00:00,13:00–23:00,Philadelphia,19134
Anthony's Coal Fired Pizza & Wings,0x89c6e9e8b6280d07:0x640fcbbf91382322,39.9142377,-75.3478566,4.1,37,11:00–21:00,11:00–21:00,11:00–21:00,11:00–21:00,11:00–22:00,11:00–22:00,11:00–21:00,Springfield,19064
Little Italy Pizza & Trattoria,0x89c6c89f5f79d653:0x68cbded6fab446be,39.937410799999995,-75.1499663,4.3,98,11:00–22:00,11:00–22:00,11:00–22:00,11:00–22:00,11:00–22:00,11:00–22:00,11:00–22:00,Philadelphia,19147
Patti's la Cucina,0x8834e9cd15cc9575:0xedc6d540ed9fe356,40.3525061,-79.8214981,4.4,46,Closed,11:00–21:00,11:00–21:00,11:00–21:00,11:00–21:00,14:00–21:00,Closed,White Oak,15131
La Vera Pizza No 2,0x89c1521baacba843:0x473bcdf58485851c,40.1350694,-74.88295,4.1,145,10:00–22:00,10:00–22:00,10:00–22:00,10:00–22:00,10:00–23:00,10:00–23:00,11:00–22:00,Levittown,19056
Crazy Tomato,0x89c88eeeb95b7f57:0xfa47e1839405d22b,39.97379,-76.70370799999999,3.9,175,11:00–22:00,11:00–22:00,11:00–22:00,11:00–22:00,11:00–23:00,11:00–23:00,00:00–22:00,York,17403
Arleo's Pizza,0x8834547af6cc7c8b:0x5b0b82fa8eb20881,40.267674,-80.180379,4.4,98,Closed,16:00–21:00,16:00–21:00,16:00–21:00,15:00–21:00,15:00–21:00,15:00–20:00,Canonsburg,15317
Brothers Pizza of Howard,0x89ce96ac8dec884d:0xad7211aea20b6a19,41.0151123,-77.66063679999999,4.6,118,11:00–21:00,11:00–21:00,11:00–21:00,11:00–21:00,11:00–22:00,13:00–22:00,Closed,Howard,16841
3 Cheers Cafe,0x89c51f4a6e6f9547:0xdd0c765202eb91ca,41.334319,-75.80295,4.5,38,Closed,Closed,16:00–21:00,16:00–21:00,16:00–22:00,16:00–22:00,Closed,West Pittston,18643
Amelia,0x89c3ff458051e037:0x237a115faea137ed,40.363326,-74.9532354,4.3,38,Closed,Closed,17:00–22:00,17:00–22:00,17:00–22:00,17:00–22:00,17:00–22:00,New Hope,18938
Calandi's,0x89c4cdea83d03f6f:0x7316d078bf3133b5,41.568397499999996,-75.5046905,3.9,26,16:00–02:00,16:00–02:00,16:00–02:00,16:00–02:00,16:00–02:00,16:00–02:00,16:00–00:00,Carbondale,18407
89 Cold Beer & Pizza,0x89c6c6989145fd01:0xa8fec84e6dbcbc65,39.9334573,-75.2234935,3.6,96,10:30AM–2AM,10:30AM–2AM,10:30AM–2AM,10:30AM–2AM,10:30AM–2AM,10:30AM–2AM,10:30AM–2AM,Philadelphia,19143
City Star Pizza,0x89c6b9de16ad6277:0xa43ca34a16298031,40.044142,-75.18163559999999,4.9,18,11AM–11:30PM,11AM–11:30PM,11AM–11:30PM,11AM–11:30PM,11AM–11:30PM,11AM–11:30PM,11AM–10:30PM,Philadelphia,19144
Vincenzo's Pizza (Harrisburg),0x89c8bede54714d1b:0x4fa2b37a4ccfaeac,40.2604331,-76.777231,3.6,97,11:00–21:00,11:00–21:00,11:00–21:00,11AM–9:30PM,11AM–9:30PM,11AM–9:30PM,Closed,Harrisburg,17111
VIM Pizza & Italian Restaurant,0x89c646f389bda5c9:0x1f20e165942b6899,39.992394499999996,-76.02006639999999,3.8,153,10:00–22:00,10:00–22:00,10:00–22:00,10:00–22:00,10:00–23:00,10:00–23:00,Closed,Gap,17527
Mr Joe's Steak House & Restaurant,0x89c89d1c3cab67d3:0x8710da0fba37d53b,40.030260899999995,-76.4985485,4.3,222,Closed,11:00–20:00,11:00–20:00,11:00–20:00,11:00–20:00,11:00–20:00,00:00–20:00,Columbia,17512
Banana Peppers Pizzeria,0x8834fb0ac7d82f19:0x2a47a5406c8b7e28,40.300144599999996,-79.9624044,4.5,56,Closed,11:00–20:00,11:00–20:00,11:00–20:00,11:00–21:00,11:00–21:00,16:00–20:00,Clairton,15025
A Mano Eatery,0x8834a858d60890ad:0x76185dd1cf40acfd,40.811688,-79.51832399999999,4.6,97,Closed,07:00–14:00,07:00–14:00,07:00–14:00,07:00–14:00,08:00–13:00,Closed,Kittanning,16201
Italian Home Club,0x8833b6e0987bfdb7:0xf493a736fb3d13e6,41.4017963,-80.38869489999999,4.6,34,10:00–23:00,10:00–23:00,10:00–23:00,10:00–23:00,10:00–23:00,11:00–23:00,11:00–23:00,Greenville,16125
Bella Italia,0x406f88d0cb8cc73b:0x6dfbf5a2d7bb131b,40.196990199999995,-76.0176575,3.9,133,Closed,11:00–21:00,11:00–21:00,11:00–21:00,11:00–21:00,11:00–21:00,11:00–21:00,Bowmansville,17507
Apollo Pizza Bar & Restaurant,0x89c14e24d5c5f053:0x85446f5887fc7432,40.107711099999996,-74.84193979999999,4.5,48,Closed,Closed,00:00–22:00,00:00–22:00,00:00–23:00,00:00–23:00,Closed,Bristol,19007
Sam's Pizza,0x89c6f5ed7cf6562f:0x6a014ef9a814dba0,40.0060694,-75.7020002,4.5,133,Closed,10:00–21:00,10:00–21:00,10:00–21:00,10:00–22:00,10:00–22:00,11:30AM–9PM,Downingtown,19335
Italian Village Pizza,0x8834fafbbfa5f1a1:0x10fd8ee056b24da0,40.3258205,-79.9569156,3.2,65,11AM–9:30PM,11AM–9:30PM,11AM–9:30PM,11AM–9:30PM,11AM–10:30PM,11AM–10:30PM,11AM–9:30PM,Pittsburgh,15236
New Station Pizza IV,0x89c6b4348747a515:0xbcae089bb5ad6623,40.026256,-75.04315799999999,3.5,136,11:00–23:00,11:00–23:00,11:00–23:00,11:00–23:00,11:00–01:00,11:00–01:00,00:00–23:00,Philadelphia,19135
Lina's Cucina,0x89c435c256b3fbdf:0xba9c0210713c7f88,40.681532499999996,-75.6957382,4.7,18,Closed,Closed,11:30AM–8:30PM,11:30AM–8:30PM,11:30AM–8:30PM,11:30AM–8:30PM,11:30AM–8:30PM,New Tripoli,18066
Nick's Pizza Restaurant,0x89c687b7f836ddbf:0xdba79d7acfdc169a,40.246584999999996,-75.678924,4.5,65,10:30AM–9PM,10:30AM–9PM,10:30AM–9PM,10:30AM–9PM,10:30AM–9PM,10:30AM–9PM,11:00–20:00,Pottstown,19464
Paesano's Pizza,0x89c889c1f86ed5b7:0x6fad5dfb5916dbae,39.882895,-76.7099535,4.8,158,Closed,11:00–23:00,11:00–21:00,11:00–21:00,11:00–21:00,11:00–23:00,11:00–23:00,Jacobus,17407
Pizzanos Pizza & Subs,0x89c51f8c3802edfb:0x1f3bb245d36d2b79,41.338779699999996,-75.7413445,4.5,52,Closed,15:00–20:00,15:00–20:00,15:00–20:00,15:00–21:00,15:00–21:00,Closed,Avoca,18641
Florida Style Pizza,0x89c6c674734b1e7d:0x6d4191ad79851809,39.9261191,-75.1822414,4.2,38,11:00–21:00,11:00–21:00,11:00–21:00,11:00–21:00,11:00–21:00,00:00–21:00,16:00–17:00,Philadelphia,19145
Buon Cibo Grill,0x8834ea9ebdbb4fdd:0x9620704bf4ab555f,40.4262398,-79.67137269999999,4.6,105,Closed,4:30–9:30PM,4:30–9:30PM,4:30–9:30PM,4:30–10PM,4:30–10PM,Closed,Murrysville,15668
Semolina Pizza,0x89c6adab414ef66f:0xc9d37c108089291e,40.176379,-75.04282839999999,5.0,8,Closed,11:00–21:00,11:00–21:00,11:00–21:00,11:00–22:00,11:00–22:00,11:00–21:00,Southampton,18966
Lo Bello's Restaurant,0x88345e14b13ebf81:0x4b037743614f67f6,40.5197259,-80.169833,4.2,16,Closed,Closed,Closed,4–8:30PM,4–8:30PM,4–8:30PM,4–8:30PM,Coraopolis,15108
Sciarrino's Pizzeria,0x89c6c21b4e4beee5:0x6d2900dea1ddb848,39.934599999999996,-75.328876,4.4,168,11:00–22:00,11:00–22:00,11:00–22:00,11:00–22:00,11:00–00:00,11:00–00:00,00:00–21:00,Springfield,19064
Sbarro,0x8834d1c9bdc4f053:0xb5a17326337ca431,40.3007762,-79.50834929999999,3.7,17,10:00–21:00,10:00–21:00,10:00–21:00,10:00–21:00,10:00–21:00,10:00–21:00,10:00–21:00,Greensburg,15601
Otto By Polpo,0x89c6bf52c04519ad:0xe2ec8e0b68e43168,40.0217935,-75.31618689999999,4.6,46,11:00–15:00,11:00–15:00,11:00–15:00,11:00–15:00,11:00–15:00,11:00–15:00,11:00–15:00,Bryn Mawr,19010
Marzella's Pizza,0x89c690a2f5d9d577:0x307198d932dcceee,40.1902263,-75.45588529999999,4.1,148,Closed,11:00–20:00,11:00–20:00,11:00–20:00,11:00–21:00,11:00–21:00,00:00–20:00,Collegeville,19426
LIFeSTYLE,0x89ca525f2c70a5d9:0x4d0bd83dab5a28b3,40.0188493,-78.5033734,4.7,58,10:00–16:00,10:00–16:00,10:00–16:00,10:00–16:00,10:00–16:00,10:00–18:00,11:00–15:00,Bedford,15522
Pizza Siena,0x8834d2c98087c845:0xe86008eace638236,40.2881202,-79.38657909999999,4.4,168,11:00–21:00,11:00–21:00,11:00–21:00,11:00–21:00,11:00–21:00,11:00–21:00,11AM–8:30PM,Latrobe,15650
Villa Teresa,0x89cf3feb1917b839:0xb5c2af48301c9f5c,40.8246063,-76.8491106,4.3,58,10:00–20:00,10:00–20:00,10:00–20:00,10:00–20:00,10:00–20:00,10:00–20:00,11:00–17:00,Selinsgrove,17870
Tony Roni's Pizza Bala Cynwyd,0x89c6c756a6d49f9b:0xb89847d83d80b12a,40.005552,-75.241753,4.0,106,10AM–8:30PM,10AM–8:30PM,10AM–8:30PM,10AM–8:30PM,10:00–21:00,10:00–21:00,11:00–20:00,Bala Cynwyd,19004
Casa Italia Pizza & Pasta,0x89c7acba29d1d2b7:0x8f294d4da8af4f4b,39.7609299,-75.84477679999999,4.4,118,Closed,11:00–21:00,11:00–21:00,11:00–21:00,11:00–21:00,11:00–21:00,11:00–20:00,Lincoln University,19352
Famous Franks A-lot,0x89c6c6297040f21b:0xd615e4801f52ad9d,39.9531914,-75.1594066,3.4,53,11:00–18:00,11:00–18:00,11:00–18:00,11:00–18:00,11:00–18:00,11:00–18:00,11:00–17:00,Philadelphia,19107
Mama Mia Pizza,0x89c6c2e5a845784b:0xc7271486af22cff3,39.884339,-75.30393,3.3,88,11:00–22:00,11:00–22:00,11:00–22:00,11:00–22:00,11:00–01:00,11:00–01:00,00:00–21:00,Prospect Park,19076
South View Pizza,0x89c6c8aa9a295163:0x2277abd2c1d7393,39.9194393,-75.1538954,3.9,88,12–10:15PM,12–10:15PM,12–10:15PM,12–10:15PM,12PM–12:15AM,12–11:30PM,00:00–22:00,Philadelphia,19148
Enzo's Pizza & Pasta,0x89c6f552b5c18781:0xddf9d87e71f5eadf,40.0554847,-75.66648099999999,4.7,36,10:00–22:00,10:00–22:00,10:00–22:00,10:00–22:00,10:00–22:00,10:00–22:00,Closed,Exton,19341
Vinny's pizzarama,0x89c6a1eecccef3d3:0xe88582390e24d554,40.2751759,-75.3054581,4.8,46,Closed,10:00–20:00,10:00–20:00,10:00–20:00,10:00–21:00,10:00–21:00,10:00–20:00,Hatfield,19440
Florinos Pizza & Bar,0x89c670b4be4ba03f:0xe23de17fd47e9adc,40.335069999999995,-75.9185481,3.7,78,10:00–00:00,10:00–00:00,10:00–00:00,10:00–01:00,10:00–02:00,10:00–02:00,10:00–00:00,Reading,19602
Conrad's Pizza,0x89db221ddb964527:0x5ac065cdc2138f32,41.9463496,-75.6025717,4.5,55,00:00–21:00,00:00–21:00,00:00–21:00,00:00–21:00,00:00–21:00,00:00–21:00,00:00–21:00,Susquehanna,18847
Antonella's Italian Kitchen,0x89c6bffe92ace8f3:0x7f5fcac90778c0d4,40.025811499999996,-75.3375997,4.7,95,10:00–18:00,10:00–18:00,10:00–18:00,10:00–18:00,10:00–18:00,10:00–16:00,Closed,Bryn Mawr,19010
Sbarro,0x89c6c362161add69:0x5bd19a578401d973,39.88064,-75.23834,3.2,39,6:30AM–9PM,6:30AM–9PM,6:30AM–9PM,6:30AM–9PM,6:30AM–9PM,6:30AM–9PM,6:30AM–9PM,Philadelphia,19153
Jarrettown Hotel Restaurant,0x89c6a53632002dcd:0xf85b351177d198c0,40.155191599999995,-75.1756991,4.5,8,11:00–22:00,11:00–22:00,11:00–22:00,11:00–22:00,11:00–22:00,11:00–22:00,11:00–21:00,Dresher,19025
Pizza Masters,0x8834662da227ca2b:0xeee4142456a7f3ba,40.5936204,-80.2725107,4.2,57,14:00–21:00,14:00–21:00,11:00–21:00,11:00–21:00,11:00–21:00,11:00–21:00,11:00–21:00,Aliquippa,15001
Broad St. Pizzeria and Restaurant,0x89c43ef8dbe80d0f:0xa6b341f5e06dafb2,40.6227206,-75.3903186,3.9,177,10:30AM–10PM,10:30AM–10PM,10:30AM–10PM,10:30AM–10PM,10:30AM–10PM,10:30AM–10PM,10:30AM–9PM,Bethlehem,18018
Bados Cucina,0x883455c73571cb21:0x12a97eab51f0ed14,40.274526099999996,-80.1259639,4.5,28,Closed,5–9:30PM,5–9:30PM,5–9:30PM,17:00–22:00,17:00–22:00,Closed,Canonsburg,15317
Sbarro,0x8835ad164cf260d9:0xcff550c960b1c77d,40.2158929,-80.2116195,4.3,8,10:00–21:00,10:00–21:00,10:00–21:00,10:00–21:00,10:00–21:00,10:00–21:00,11:00–19:00,Washington,15301
Illiano's,0x89c51af2540b7549:0xeeb0b16942fd42ed,41.236716,-75.8730745,4.6,118,Closed,11:00–22:00,11:00–22:00,11:00–22:00,11:00–23:00,11:00–23:00,00:00–21:00,Wilkes-Barre,18702
John's New Pizza & Restaurant,0x89c6b4885cde1c57:0x4632e54a1bc67f36,40.0483579,-75.0121344,4.0,212,11AM–11:30PM,11AM–11:30PM,11AM–11:30PM,11AM–11:30PM,11:00–00:00,11AM–12:30AM,12–10:30PM,Philadelphia,19136
Midtown Pizza,0x89c8bdfaaff8a9df:0x54875696e5b95936,40.2000618,-76.7229115,3.6,237,11:00–21:00,11:00–21:00,11:00–21:00,11:00–21:00,11:00–21:00,11:00–21:00,11:00–21:00,Middletown,17057
Luciano's Pizza & Six Pack To Go,0x88348c7fbb5306b3:0xe64b9bc85a2c544b,40.567588,-80.00709499999999,4.2,467,11:00–21:00,11:00–21:00,11:00–21:00,11:00–21:00,11:00–22:00,11:00–22:00,11:00–21:00,Pittsburgh,15237
Sbarro,0x89c6c484ce73ed45:0x77a8a7691e4f09fa,39.877136,-75.24067,3.3,8,6:30AM–9PM,6:30AM–9PM,6:30AM–9PM,6:30AM–9PM,6:30AM–9PM,6:30AM–9PM,6:30AM–9PM,Philadelphia,19153
New Spatola's Pizza,0x89c40351c1326c47:0xcff88de6eb4bb7f6,40.390616699999995,-75.1479028,4.4,98,10:30AM–10PM,10:30AM–10PM,10:30AM–10PM,10:30AM–10PM,10:30AM–10PM,10:30AM–10PM,11:00–22:00,Pipersville,18947
Fiorella Pasta,0x89c6c726de9697d1:0xfd81d1db6a313e68,39.9388679,-75.1569208,4.8,118,16:00–21:00,16:00–21:00,16:00–21:00,16:00–21:00,16:00–22:00,16:00–22:00,16:00–21:00,Philadelphia,19147
Spasso Italian Grill,0x89c6e907df5c8371:0x43f2249b4afb329e,39.918120099999996,-75.3896457,4.5,688,11:30AM–9PM,11:30AM–10PM,11:30AM–10PM,11:30AM–10PM,11:30AM–11PM,11:30AM–11PM,10:00–21:00,Media,19063
Katrina's Pizza & Hoagie,0x89c4d988f090c393:0xe77cbb80821f222b,41.4592099,-75.62428489999999,4.3,108,Closed,06:00–19:00,06:00–19:00,06:00–19:00,06:00–20:00,06:00–20:00,06:00–12:00,Dickson City,18519
Original Italian Pizza,0x89cbe35748e10a03:0xd97d9241f9a2f73e,40.4862829,-78.0145158,4.5,358,10:30AM–9PM,10:30AM–9PM,10:30AM–9PM,10:30AM–9PM,10:30AM–9PM,10:30AM–9PM,10:30AM–9PM,Huntingdon,16652
Thorndale Pizza Box,0x89c65f32f1d02775:0xba81a32576fbd780,39.9987012,-75.7328634,4.6,138,Closed,10AM–8:30PM,10AM–8:30PM,10AM–8:30PM,10:00–21:00,10:00–21:00,10AM–8:30PM,Downingtown,19335
Mr P Pizza & Pasta Inc,0x89c6b05048096295:0xde7549279affc7f2,40.1228042,-75.1161915,4.1,158,10:00–22:00,10:00–22:00,10:00–22:00,10:00–22:00,10:00–23:00,10:00–23:00,11:00–22:00,Abington,19001
Tino's Pizzeria & Bar,0x89c671539619e86b:0xc3d6f289e2fa295d,40.3409481,-75.9855917,4.5,274,Closed,11:00–21:00,11:00–21:00,11:00–21:00,11:00–22:00,11:00–22:00,11:00–21:00,Reading,19610
Asti's Italian Steakhouse,0x8834efb2ce67f33b:0x2336e4c93a6b5c5d,40.4032579,-79.8558012,4.7,48,11:00–21:00,11:00–21:00,11:00–21:00,11:00–21:00,11:00–22:00,11:00–22:00,11:00–19:00,Braddock,15104
Carabello,0x89c4d95081a108ed:0xe286b0ac09126930,41.4196032,-75.6294223,4.7,94,Closed,17:00–22:00,17:00–22:00,17:00–22:00,17:00–00:00,5–11:30PM,Closed,Dunmore,18512
"Dominick's Diner, LLC",0x882d7fe104a00453:0xfed52df1538ca6da,42.1241762,-80.07900409999999,4.3,709,07:00–19:00,07:00–19:00,07:00–19:00,07:00–19:00,07:00–19:00,07:00–19:00,07:00–14:00,Erie,16501
Adriatic Pizza & Pasta,0x89c153e74440c81d:0xc2177132109dde61,40.1835399,-74.8809366,4.1,15,11:00–19:00,11:00–19:00,11:00–19:00,11:00–19:00,10:00–20:00,10:00–20:00,00:00–18:00,Langhorne,19047
Napoli Pizza and Italian Cuisine,0x89c415b7c66511db:0x4233427d5dd75dc9,40.644297,-75.3325862,4.8,38,11AM–9:30PM,11AM–9:30PM,11AM–9:30PM,11AM–9:30PM,11:00–22:00,11:00–22:00,12–8:30PM,Bethlehem,18020
Pat's pizza and Hoagies,0x40678fe13f5f3d45:0x2cb3a23269f85aee,41.5782862,-75.5059721,4.5,88,Closed,10:00–22:00,10:00–22:00,10:00–22:00,10:00–22:00,10:00–22:00,14:00–22:00,Carbondale,18407
Parma Pizza and Grill,0x89c88bfe0ef57177:0x5da6b73515db1a95,39.9468803,-76.7345962,4.2,323,10:30AM–9:30PM,10:30AM–9:30PM,10:30AM–9:30PM,10:30AM–9:30PM,10:30AM–10:30PM,10:30AM–10:30PM,11AM–9:30PM,York,17403
Italian-American Club,0x8834c69be02501a7:0x55b2afdf3eca56f3,40.4168242,-79.6221807,4.4,96,09:00–01:00,09:00–01:00,09:00–01:00,09:00–01:00,09:00–01:00,09:00–01:00,09:00–22:00,Export,15632
Uncle Charlie's Pizza,0x89c15141540dce53:0x3401e8233cb19a75,40.1846947,-74.85658409999999,4.3,358,10:15AM–9PM,10:15AM–9PM,10:15AM–9PM,10:15AM–9PM,10:15AM–10PM,10:15AM–10PM,11AM–8:45PM,Fairless Hills,19030
Olive Garden Italian Restaurant,0x89c623f589808773:0x9d58229e2faa6965,40.066794,-76.344663,4.2,1993,11:00–22:00,11:00–22:00,11:00–22:00,11:00–22:00,11:00–23:00,11:00–23:00,11:00–22:00,Lancaster,17601
Lincoln Avenue Pizza,0x8834f5039ba2d233:0x94969e97bc9927d9,40.4967628,-80.0584638,3.8,127,Closed,2:30–10PM,2:30–10PM,14:00–22:00,2–10:30PM,2–10:30PM,2:30–9:45PM,Bellevue,15202
Paulie's,0x89cf6a9277735d39:0x11de1d33093e5581,40.8556235,-76.7876908,4.7,58,Closed,11:00–20:00,11:00–20:00,11:00–20:00,11:00–21:00,11:00–21:00,Closed,Sunbury,17801
Joe & Tina's Pizzeria III,0x89c6ac06dcd10a63:0x321497c9756cfa7a,40.188289,-75.086517,4.3,74,10:30AM–9PM,10:30AM–9PM,10:30AM–9PM,10:30AM–9PM,10:30AM–10PM,11:00–22:00,12–7:45PM,Warminster,18974
My New Place Pizzeria & Italian Restaurant,0x89c46c58d6ff414d:0xd1af24573aeae994,40.6879604,-75.218182,4.3,203,10:30AM–9:30PM,10:30AM–9:30PM,10:30AM–9:30PM,10:30AM–9:30PM,10:30AM–10PM,10:30AM–10PM,Closed,Easton,18042
Toledo’s II Pizza,0x89c9872a0d55121b:0x2970826f430997a6,39.914710299999996,-77.9052196,4.3,106,10:00–21:00,10:00–21:00,10:00–21:00,10:00–21:00,10:00–21:00,10:00–21:00,10:00–21:00,Fort Loudon,17224
Pizzaz Pizza,0x89c6e80f0a541797:0xc34390ddade1e606,39.870539,-75.35582699999999,3.3,78,2:30–11:30PM,2:30–10:45PM,2:30–10:45PM,2:30PM–12:45AM,2:30PM–12:45AM,2:30PM–12:45AM,2:30–10:45PM,Woodlyn,19094
Kings New York Pizza,0x89c9bc0afd17eac3:0x51b87f537a7d7cc1,39.728684,-77.473402,4.0,74,10:30AM–8PM,10:30AM–8PM,10:30AM–8PM,10:30AM–8PM,11:00–21:00,11:00–21:00,10:30AM–8PM,Blue Ridge Summit,17214
Pasta Too,0x8834f949d478f607:0x2d11622d52e12dd9,40.3307552,-80.0226204,4.5,1619,11:00–21:00,11:00–21:00,11:00–21:00,11:00–21:00,11:00–21:00,11:00–21:00,13:00–20:00,Bethel Park,15102
Vincenzo's Deli,0x89c6c60355108f57:0xade8b4d6f45879b2,39.928537,-75.16033,4.7,74,09:00–15:00,09:00–15:00,09:00–15:00,09:00–15:00,09:00–15:00,09:00–15:00,Closed,Philadelphia,19148
Dino's Italian Bistro,0x89c5171c9d468ec1:0x71d07ea38ad06695,41.320972,-75.94278589999999,4.3,115,11:00–20:00,11:00–20:00,11:00–20:00,11:00–20:00,11:00–21:00,11:00–21:00,Closed,Shavertown,18708
Uncle Tomy's,0x89c6c67aa9379533:0x13d58311ec8d6eaa,39.9336051,-75.1881484,3.9,138,11AM–10:45PM,11AM–10:45PM,11AM–10:45PM,11AM–10:45PM,11AM–11:45PM,11AM–11:45PM,4–10:45PM,Philadelphia,19145
Spasso Italian Grill,0x89c6c88f80b398e9:0xa6541912b9e6fb31,39.948706,-75.142687,4.4,806,Closed,11:30AM–10PM,11:30AM–10PM,11:30AM–10PM,11:30AM–10PM,14:00–23:00,14:00–21:00,Philadelphia,19106
Candelario's Pizzeria & Restaurant,0x89c693b37da00ca7:0xedfb7cea55c484ef,40.0455926,-75.4456854,4.5,64,Closed,10:00–22:00,10:00–22:00,10:00–22:00,10:00–22:00,11:00–22:00,00:00–21:00,Berwyn,19312
Pugliano's Italian Grill,0x8834c1b997462059:0x6143f8165bebe862,40.447391499999995,-79.7133408,4.1,712,Closed,11:00–22:00,11:00–22:00,11:00–22:00,11:00–23:00,11:00–23:00,11:00–21:00,Pittsburgh,15239
Pepe's Pizzeria,0x89cd0d0a5d8256d1:0x7aaa3015437079d1,41.6616797,-78.8112608,4.4,248,11:00–21:00,11:00–21:00,11:00–21:00,11:00–21:00,11:00–22:00,11:00–22:00,11:00–21:00,Kane,16735
Axis Pizza,0x89c6c650d07ed033:0xe301a93752493c10,39.9551781,-75.194571,4.0,558,09:00–00:00,09:00–00:00,09:00–00:00,09:00–00:00,09:00–00:00,09:00–00:00,09:00–00:00,Philadelphia,19104
Olive Garden Italian Restaurant,0x89c153dc767c5547:0xfc9ec9a25afd82a3,40.1777637,-74.88095679999999,4.2,2079,11:00–22:00,11:00–22:00,11:00–22:00,11:00–22:00,11:00–23:00,11:00–23:00,11:00–22:00,Langhorne,19047
Portofino's Pizza & Pasta,0x8834f66e5acafeb9:0x473f6d016db9d58e,40.4382345,-80.0682406,4.1,228,11:00–22:00,11:00–22:00,11:00–22:00,11:00–22:00,11:00–23:00,11:00–23:00,Closed,Crafton,15205
Pizza Bistro,0x8834ef6f93020b07:0xbee65c0462cc55be,40.361844999999995,-79.858549,3.4,97,Closed,12–8:30PM,12–8:30PM,12–8:30PM,12–9:30PM,12–9:30PM,12–9:30PM,West Mifflin,15122
Osteria Pasqualino,0x8834c15d2ad913b3:0xc7fe662d72d6c506,40.427047699999996,-79.67923739999999,4.4,528,11:00–22:00,11:00–22:00,11:00–22:00,11:00–22:00,11:00–22:00,11:00–22:00,11:00–22:00,Murrysville,15668
Gabriel's Pizza,0x89c8c69533205255:0x2a3ac6866f35f934,40.3138866,-76.8951414,4.3,222,Closed,11AM–9:30PM,11AM–9:30PM,11AM–9:30PM,11AM–10:30PM,11AM–10:30PM,11AM–9:30PM,Harrisburg,17110
Pizza Fiesta,0x8834f150de7e73ef:0xe0db447d110f3553,40.437022999999996,-80.000463,4.1,253,10:00–00:00,10:00–00:00,10:00–00:00,10:00–00:00,10:00–02:00,10:00–02:00,10:00–00:00,Pittsburgh,15222
Costa's Pizza & Grill,0x89c6b25e49fab4df:0x12273a4698d0323a,40.1195741,-75.0182478,3.7,103,11:00–22:00,11:00–22:00,11:00–23:00,11:00–23:00,11:00–00:00,11:00–00:00,11:00–22:00,Philadelphia,19116
Johnny Paisano's,0x89c6c23e19b82f7f:0xbce91ecfcd5d214d,39.922857,-75.317754,4.7,153,Closed,10:00–18:00,10:00–18:00,10:00–20:00,10:00–20:00,10:00–20:00,Closed,Springfield,19064
College Pizza,0x89cea8a1b659e1a9:0x17f15c78173f3c8a,40.795912,-77.857963,3.7,138,11:30AM–3AM,11:30AM–3AM,11:30AM–3AM,11:30AM–3AM,11:30AM–3AM,11:30AM–3AM,11:30AM–3AM,State College,16801
DiMaio's Ristorante',0x89ccaa6473235069:0x1cc5b43b16675534,40.7998471,-79.3291916,4.5,65,Closed,Closed,15:00–21:00,15:00–21:00,3–9:30PM,3–9:30PM,Closed,Rural Valley,16249
Universal Pizza,0x8834ec8ef27cc203:0x9c1ae3e0e0b23e2,40.4718283,-79.7874327,4.4,138,Closed,13:00–21:00,13:00–21:00,13:00–21:00,13:00–22:00,13:00–22:00,14:00–20:00,Penn Hills,15235
Olives and Peppers,0x8834d119700a5309:0xe4fa8c659ece6778,40.3045577,-79.5468977,4.6,17,Closed,15:00–20:00,15:00–20:00,15:00–20:00,12–8:30PM,12–8:30PM,00:00–19:00,Greensburg,15601
Tortorice’s Specialty Sandwiches,0x89c6c7f4deb2357d:0x7bcde756e3ca599c,39.949491599999995,-75.1739356,4.7,115,10:00–17:00,10:00–17:00,10:00–17:00,10:00–17:00,10:00–17:00,09:00–16:00,09:00–15:00,Philadelphia,19103
Paprikas,0x88345b247acb4a49:0x9bbac62ce4c89198,40.441857899999995,-80.2351533,4.2,53,Closed,4–8:30PM,4–8:30PM,4–8:30PM,16:00–21:00,16:00–21:00,4–8:30PM,Imperial,15126
Vallozzi's Greensburg,0x8834d06ab963cc7f:0x1eca596cdb21dfc0,40.301986199999995,-79.492666,4.4,266,Closed,00:00–21:00,00:00–21:00,00:00–21:00,00:00–22:00,16:00–22:00,Closed,Greensburg,15601
Vera's Pizza,0x89c6c1388fad8cd5:0x2252d8394b38e0e7,39.952695,-75.262952,4.0,66,11:00–22:00,11:00–22:00,11:00–22:00,11:00–22:00,11:00–23:00,11:00–23:00,00:00–22:00,Upper Darby,19082
Romano's Restaurant & Bar,0x89c5c82efda9b485:0xa7c84ca80d71aabb,40.7210739,-75.8619739,3.8,97,Closed,Closed,16:00–22:00,16:00–22:00,16:00–22:00,16:00–22:00,16:00–22:00,New Ringgold,17960
La Vita's,0x8834d06d2724a52b:0x29f82f6b2409ad8e,40.3020291,-79.5467573,4.5,78,12–8:30PM,12–8:30PM,12–8:30PM,12–8:30PM,12–8:30PM,2–8:30PM,Closed,Greensburg,15601
Vince & Friends,0x89c42630a7005717:0xb0aa87a54e66435f,40.4150062,-75.5106636,4.3,264,Closed,11:00–21:00,11:00–21:00,11:00–21:00,11:00–21:00,11:00–21:00,11:00–21:00,East Greenville,18041
Dolce Pizza Ristorante,0x89c6b3c11dfae0d1:0xa9a9a51b6727ff23,40.0872476,-75.03991479999999,3.8,93,11:00–22:00,11:00–22:00,11:00–22:00,11:00–22:00,11:00–22:00,11:00–22:00,11:00–22:00,Philadelphia,19115
Pizza Joe's,0x8833a3022e51d2bd:0x15b55dc9abcc0603,41.228851,-80.239688,4.1,113,11:00–21:00,11:00–21:00,11:00–21:00,11:00–21:00,11:00–21:00,11:00–21:00,11:00–21:00,Mercer,16137
Teresas' Italian Restaurant & Pizzeria,0x89c431c756216e45:0x52a19a9d53d8efd9,40.589529,-75.60343619999999,4.5,27,11:00–22:00,Closed,11:00–22:00,11:00–22:00,11:00–23:00,11:00–23:00,11:00–21:00,Allentown,18106
Casta Diva BYOB - Rittenhouse,0x89c6c639c48d47e1:0xe7d65766055cb81b,39.9496915,-75.1738755,4.7,86,Closed,16:00–21:00,16:00–21:00,16:00–21:00,16:00–21:00,16:00–21:00,Closed,Philadelphia,19103
Pammy's Pizza,0x88353e49bce2a967:0xdec9f691b9289e1f,39.9228204,-79.6758502,4.3,64,10:00–21:00,10:00–21:00,10:00–21:00,10:00–21:00,10:00–21:00,10:00–21:00,Closed,Lemont Furnace,15456
Vinny and ThozeGuyz Pizzeria,0x89c63b150e7620e7:0xeba6146066cb649b,40.032800099999996,-76.2461663,4.5,248,11AM–9:30PM,11AM–9:30PM,11AM–9:30PM,11AM–9:30PM,11AM–10:30PM,11AM–10:30PM,11AM–9:30PM,Lancaster,17602
Fresco Pizza & Grill,0x89c6ebafdc37074f:0x9036a0cbfa01e1e2,39.9760372,-75.3985072,4.4,288,00:00–20:00,00:00–20:00,00:00–20:00,00:00–20:00,00:00–20:00,00:00–20:00,00:00–20:00,Newtown Square,19073
Tomasino's Italian Restaurant,0x89c51657ce044a1d:0x70c4c3722c6a626d,41.3326188,-75.9539617,4.5,215,11:00–20:00,11:00–20:00,11:00–20:00,11:00–20:00,11:00–20:00,11:00–20:00,Closed,Dallas,18612
Lettopalena's Pizza and Italian Cuisine,0x883485254dd57e89:0x29580cc4ae7c6fb6,40.710421499999995,-79.9316465,4.4,118,Closed,Closed,11:00–21:00,11:00–21:00,11:00–21:00,11:00–21:00,11:00–21:00,Valencia,16059
Bella Rosa,0x89c699a5bbf34d65:0xb0aec48423f33c4c,40.2241123,-75.40119349999999,4.6,48,Closed,Closed,11:30AM–3:45PM,11:30AM–3:45PM,11:30AM–3:45PM,11:30AM–3:45PM,11:30AM–3:45PM,Skippack,19474
Italian Village Pizza,0x883455b8e9c4d8a1:0xda9ef33ec645c8cf,40.271047599999996,-80.1259551,3.8,108,11AM–8:30PM,11AM–8:30PM,11AM–8:30PM,11AM–8:30PM,11AM–8:30PM,11AM–8:30PM,12–8:30PM,Canonsburg,15317
Pizzas By Marchelloni - W Middlesex,0x8833ead2e2da858d:0x4846d17516c9aa6d,41.1724241,-80.4569399,4.0,74,11:00–23:00,11:00–23:00,11:00–23:00,11:00–23:00,11:00–00:00,11:00–00:00,00:00–23:00,West Middlesex,16159
Philomena Santucci's Square Pizza,0x89c6aeef08096245:0x9c89b1e01028cf21,40.2029719,-75.0939394,4.4,427,11:00–21:00,11:00–21:00,11:00–21:00,11:00–21:00,11:00–22:00,11:00–22:00,11:00–21:00,Warminster,18974
Yordana's Pizza II,0x89c1512a21aa6ec3:0x3e1d1a6648a6a87d,40.1894633,-74.8298722,4.5,128,9:45AM–9:45PM,9:45AM–9:45PM,9:45AM–9:45PM,9:45AM–9:45PM,9:45AM–10:45PM,9:45AM–10:45PM,Closed,Fairless Hills,19030
Mike's Pizza,0x89c6b893f6a67585:0xb38dddaa976c9fa5,40.022526,-75.218423,3.6,128,11:00–23:00,11:00–00:00,11:00–00:00,11:00–02:00,11:00–02:00,11:00–02:00,12:00–01:00,Philadelphia,19127
The Wood Grille,0x89c4d8e11e62e155:0x8dc932e6c460f01e,41.437453999999995,-75.671408,4.6,58,Closed,16:00–21:00,16:00–21:00,16:00–21:00,16:00–22:00,16:00–22:00,Closed,Scranton,18508
Cali's Don Tomaso Peatza,0x89c4d95812b9fbb7:0x18484a2597e7ef89,41.420066999999996,-75.621648,4.8,65,Closed,Closed,15:00–20:00,15:00–20:00,11:00–21:00,00:00–20:00,15:00–20:00,Dunmore,18512
Brothers Pizza & Restaurant,0x89c6c1906f30a98d:0x1d5df7405e354b24,39.9495266,-75.3082361,4.2,276,Closed,11:00–22:00,11:00–22:00,11:00–22:00,11:00–23:00,11:00–23:00,00:00–21:00,Drexel Hill,19026
Pasquale's Pizzeria,0x88348ddb93454d05:0xffa0cf58ddf302ff,40.594563699999995,-79.9482543,4.6,88,10:00–22:00,10:00–22:00,10:00–22:00,10:00–22:00,10:00–23:00,10:00–23:00,10:00–22:00,Allison Park,15101
Gabby's Italian Bistro,0x89c6031bf486625d:0xd264d267b05cbe7d,40.3410888,-76.4039533,4.2,238,10:30AM–8PM,10:30AM–8PM,10:30AM–8PM,10:30AM–8PM,10:30AM–8PM,10:30AM–8PM,10:30AM–8PM,Lebanon,17042
Vincent's Deli,0x89c8657528b64b89:0x69fe7ef179ec85b8,39.753681,-76.67600089999999,4.8,54,11:00–20:00,11:00–20:00,11:00–20:00,11:00–21:00,11:00–21:00,11:00–21:00,11:00–20:00,Shrewsbury,17361
Pizza Il Bacio,0x89c862768ba3db4b:0x1cfe896e1d5351b3,39.9090667,-76.7916461,4.5,115,Closed,11:00–21:00,11:00–21:00,11:00–21:00,11:00–22:00,11:00–22:00,11:00–21:00,New Salem Borough,17371
Tower Pizza,0x89c6c299f1257037:0xfc54453747fe0342,39.885351,-75.33102,3.9,148,10AM–10:30PM,10AM–10:30PM,10AM–10:30PM,10AM–10:30PM,10AM–11:30PM,10AM–11:30PM,10AM–9:30PM,Folsom,19033
Sbarro,0x88327e270070de11:0xf160146922dcffb9,42.0688227,-80.097695,4.0,28,11:00–18:00,11:00–18:00,11:00–18:00,11:00–18:00,11:00–18:00,11:00–18:00,11:00–18:00,Erie,16565
Roman's Famous Meats & Seafood,0x89c4b499ad897d75:0x157a4fa123f5834c,41.574783,-75.257421,3.8,38,09:00–18:00,09:00–18:00,09:00–18:00,09:00–18:00,09:00–18:00,09:00–18:00,09:00–16:00,Honesdale,18431
Mamma Mia Pizzeria,0x89c43b0023820e45:0xf9143786972bd090,40.558627099999995,-75.4809421,4.2,75,Closed,10:30AM–9PM,10:30AM–9PM,10:30AM–9PM,10:30AM–9PM,10:30AM–9PM,12:15–9PM,Allentown,18103
Mancinis Wood fired Italian Restaurant,0x89cf13b77491ca6d:0xf2302541e47b8e95,40.963459,-76.886927,3.8,147,16:00–00:00,16:00–00:00,16:00–00:00,16:00–00:00,16:00–00:00,16:00–00:00,16:00–00:00,Lewisburg,17837
Mezzogiorno,0x89c6c49e9c50943d:0xf7b5355298fa7306,39.8740348,-75.2438028,2.9,56,4:30AM–9:45PM,4:30AM–9:45PM,4:30AM–9:45PM,4:30AM–9:45PM,4:30AM–9:45PM,4:30AM–9:45PM,4:30AM–9:45PM,Philadelphia,19153
Little Italy Pizza & Trattoria,0x89c6c9aa135b6751:0x34abf0ce3e6e14e1,39.937410799999995,-75.1499663,4.6,13,11:00–22:00,11:00–22:00,11:00–22:00,11:00–22:00,11:00–23:00,11:00–23:00,11:00–22:00,Philadelphia,19147
Al's Pizza & Subs Carlisle,0x89c8e1d9247d7bbf:0x8438d5c4dd07acde,40.1899162,-77.1924653,4.3,135,11:00–22:00,11:00–22:00,11:00–22:00,11:00–22:00,11:00–23:00,11:00–23:00,11:00–22:00,Carlisle,17013
Star Pizza,0x89c6b677f8a18831:0x408c5b00fdba80d5,40.0162693,-75.0616573,4.0,178,11AM–10:45PM,11AM–10:45PM,11AM–10:45PM,11AM–10:45PM,11AM–11:45PM,11AM–11:45PM,12–10:45PM,Philadelphia,19135
Tower of Pizza,0x89cb11480a824823:0xeeafdd295b5f38a3,40.325347,-78.9177206,4.4,8,10:00–17:00,10:00–17:00,10:00–17:00,10:00–17:00,10:00–17:00,Closed,Closed,Johnstown,15901
Pizza House Express,0x89c6b7d9e7b0d981:0xeea57d15c943e366,39.997547,-75.12016899999999,3.9,178,11AM–10:15PM,11AM–10:15PM,11AM–10:15PM,11AM–10:15PM,11AM–11:15PM,11AM–11:15PM,11AM–10:30PM,Philadelphia,19134
South Style Pizza & Deli‎,0x89c6c6cb85e564b7:0xf71f4b486d0c2e80,39.954288,-75.24423399999999,3.3,94,00:00–22:00,00:00–23:00,00:00–23:00,00:00–23:00,00:00–23:00,00:00–23:00,00:00–22:00,Philadelphia,19143
Italian Market at Valley Forge Casino Resort,0x89c6941405d8ab67:0x990b66df0adcfa8f,40.0966063,-75.41578799999999,3.7,6,11:00–00:00,11:00–00:00,11:00–00:00,11:00–00:00,11:00–03:00,11:00–03:00,11:00–00:00,King of Prussia,19406
Osteria Avanti,0x89c63c4a3055ab31:0xa3ddf6faafaaaef7,40.0852755,-76.2043516,4.7,108,16:00–21:00,16:00–21:00,16:00–21:00,16:00–21:00,13:00–21:00,13:00–21:00,16:00–21:00,Leola,17540
Biggy's Pizza,0x8835b65574fdec69:0xad9fbbc69981edf,40.1171484,-80.41210199999999,4.1,68,11:00–21:00,11:00–21:00,11:00–21:00,11:00–21:00,11:00–22:00,16:00–22:00,16:00–21:00,Claysville,15323
Pizza Pub,0x89c41fa0ee5066b1:0x45549be215bb8e71,40.3777191,-75.3142161,4.1,158,11:00–02:00,11:00–02:00,11:00–02:00,11:00–02:00,11:00–02:00,11:00–02:00,11:00–02:00,Sellersville,18960
Tony Roni's Spring House,0x89c6a4951f702629:0x3ff8534bd9723d78,40.1898536,-75.2270278,4.2,98,10:00–21:00,10:00–21:00,10:00–21:00,10:00–21:00,10AM–9:30PM,10:00–21:00,11:00–21:00,Spring House,19477
Mamma Lucrezia's Italian Restaurant,0x89cea2e29327c4d3:0x8911eb081d17a2e8,40.911104099999996,-77.77725769999999,4.5,168,Closed,16:00–21:00,16:00–21:00,16:00–21:00,16:00–22:00,16:00–22:00,Closed,Bellefonte,16823
The Pizza Stop,0x8834efe46ac238dd:0xa34861b5cdd32974,40.36972,-79.91238799999999,3.9,56,Closed,15:00–21:00,15:00–21:00,15:00–21:00,00:00–22:00,00:00–22:00,00:00–20:00,Pittsburgh,15207
Pizzeria Pesto,0x89c6c60f1fd41001:0xf766a99903d1c362,39.926106,-75.168938,4.5,108,Closed,11:00–21:00,11:00–21:00,11:00–21:00,11:00–22:00,11:00–22:00,00:00–21:00,Philadelphia,19148
LaScala's Fire Villanova,0x89c695fbbe9b2bf5:0xa2958823b99d738d,40.0376879,-75.3516937,4.4,18,11:30AM–9PM,11:30AM–9PM,11:30AM–9PM,11:30AM–9PM,11:30AM–10PM,11:30AM–10PM,11:30AM–9PM,Villanova,19085
roman delight pizza,0x89c6ac61321388e5:0xb94316fce84cdf79,40.1697031,-75.04622309999999,4.0,57,11AM–9:30PM,11AM–9:30PM,11AM–9:30PM,11AM–9:30PM,11AM–10:30PM,11AM–10:30PM,12–9:30PM,Southampton,18966
Pizzas By Marchelloni - New Castle,0x88338e63256f8803:0x3fb36b5bf106f7ff,40.999985099999996,-80.3540751,4.0,108,11:00–23:00,11:00–23:00,11:00–23:00,11:00–23:00,11:00–00:00,11:00–00:00,Closed,New Castle,16101
Sbarro,0x89c14d32adf16bc9:0x70310d4266d983,40.0846733,-74.96289159999999,3.1,18,10:00–21:00,10:00–21:00,10:00–21:00,10:00–21:00,10:00–21:00,10:00–21:00,11:00–19:00,Philadelphia,19154
Pasta Shoppe,0x88351d10035e533f:0xc70aaa84c35916ac,40.1619211,-79.8860421,4.6,108,15:00–20:00,15:00–20:00,11:00–20:00,11:00–20:00,11:00–21:00,15:00–20:00,Closed,Monessen,15062
Plum Caterers,0x89c6e68d9159fb63:0xfddc673d1f2f08f0,39.8561374,-75.42769,4.6,93,Closed,11:00–20:00,11:00–20:00,11:00–20:00,11:00–20:00,11:00–20:00,09:00–13:00,Aston,19014
Vesuvio's Restaurant & Pizza,0x89c43bc2665fb93f:0xe53e6d954966aad2,40.5844958,-75.4609261,4.4,198,Closed,11:00–22:00,11:00–22:00,11:00–22:00,11:00–23:00,11:00–23:00,11:30AM–10PM,Allentown,18103
Georgio's Restaurant & Bar,0x89c6f5ed4645739d:0x29c3b65b74c4818,40.007193799999996,-75.7012653,3.9,114,4:30–9PM,4:30–9PM,4:30–9PM,4:30–9PM,4:30–9PM,4:30–9PM,Closed,Downingtown,19335
Bobby D's,0x89c9bdb649df96dd:0x17f72f287ceb6c4a,39.7378086,-77.5244634,4.4,68,11:00–21:00,11:00–21:00,11:00–21:00,11:00–21:00,11:00–22:00,11:00–22:00,11:00–21:00,Waynesboro,17268
Anthony's Wood Oven Pizzeria & Ristorante Italiano,0x89c6f4f44591814b:0xd379f5bd44a106a4,40.023714999999996,-75.646287,4.4,108,11AM–9:30PM,11AM–9:30PM,11AM–9:30PM,11AM–9:30PM,11AM–9:30PM,11AM–9:30PM,Closed,Exton,19341
Tony Stella's Encore,0x89c5b298fe3a5df9:0x3c8ae1c0c96156ca,40.863819,-75.740034,4.3,205,Closed,Closed,Closed,Closed,00:00–15:00,00:00–15:00,Closed,Jim Thorpe,18229
Luigi's Pizza and Pasta,0x89c6ba64fce3b8c1:0x2793106700cb21a6,40.113116,-75.168521,4.1,148,10:00–22:00,10:00–22:00,10:00–22:00,10:00–22:00,10:00–23:00,10:00–23:00,11:00–21:00,Glenside,19038
Johnny G's Famous Pizza,0x89c6ad3d3d0c691b:0xfeee37e05a857893,40.150933099999996,-74.97509459999999,4.5,93,11:00–21:00,11:00–21:00,11:00–21:00,11:00–21:00,11:00–22:00,11:00–22:00,00:00–21:00,Trevose,19053
Ravyn & Robyn Food & Wine,0x89c4b1b6c8f69e6f:0x8f553f5dad386682,41.4762639,-75.1829917,4.6,165,00:00–23:00,Closed,Closed,00:00–23:00,00:00–23:00,00:00–23:00,00:00–23:00,Hawley,18428
Spasso,0x89c6c62991aa383b:0xb577cfc7da532832,39.948706,-75.142687,4.8,27,Closed,Closed,Closed,11:30AM–10PM,11:30AM–11PM,15:00–23:00,2–9:30PM,Philadelphia,19106
El Greco Pizza & Luncheonette,0x89c6c86cf5a699a3:0xb9671fc4392d020e,39.9737623,-75.1387657,4.6,158,11:00–21:00,11:00–21:00,11:00–21:00,11:00–21:00,11:00–22:00,14:00–22:00,Closed,Philadelphia,19122
Sbarro,0x8835adf5eaf93387:0x9c44c4d4a7ecd4b9,40.159924499999995,-80.27600699999999,4.0,38,11:00–19:00,11:00–19:00,11:00–19:00,11:00–19:00,11:00–19:00,11:00–19:00,11:00–19:00,Washington,15301
Pizza Joe's,0x88338e238223e205:0x844df59be7d0216f,41.0272869,-80.3381034,4.3,98,11:00–20:00,11:00–20:00,11:00–20:00,11:00–20:00,11:00–20:00,11:00–20:00,11:00–20:00,New Castle,16105
Miseno Pizza and Ristorante,0x89c91e36a5c6022b:0xfb24b6bfa767677,40.2019309,-77.2124099,3.9,116,10:30AM–9:30PM,10:30AM–9:30PM,10:30AM–9:30PM,10:30AM–9:30PM,10:30AM–9:30PM,10:30AM–9:30PM,Closed,Carlisle,17013
The Pizza Place,0x89c6c602d717399d:0x49cb0c61ec875349,39.927870999999996,-75.157276,4.0,108,12:45PM–1:45AM,11:30AM–12:45AM,11:30AM–1:45AM,11:30AM–1:45AM,11:30AM–2:45AM,11:30AM–2:45AM,11:30AM–1:45AM,Philadelphia,19148
Massimo's Pizza & Trattoria,0x89c6e4e23e3b58c3:0x4d8aef62867462c8,39.840316,-75.49651999999999,4.3,78,Closed,Closed,Closed,Closed,09:00–20:00,09:00–20:00,Closed,Garnet Valley,19060
Brother's Pizza,0x89cea8bcdf205a59:0x8803d156aecc0056,40.7874516,-77.8563412,3.0,98,Closed,11AM–7:45PM,11AM–7:45PM,11AM–7:45PM,11AM–8:30PM,11AM–8:30PM,4:15–7:45PM,State College,16801
The Orangery,0x89c65f50e528b09b:0xc58398ac41d34d5a,39.9984264,-75.7214985,4.8,48,Closed,Closed,Closed,6:30–9:30PM,6:30–9:30PM,6:30–9:30PM,6:30–9:30PM,Downingtown,19335
Rocko`s Pizzeria,0x883320457b262c8b:0x712a1d1d934a267e,41.4287907,-79.7084027,4.0,148,Closed,Closed,00:00–20:00,00:00–20:00,00:00–21:00,00:00–20:00,00:00–20:00,Oil City,16301
Mama Minniti's,0x89c43f4894739b33:0x66ff1f7e15929514,40.5946159,-75.417468,4.9,18,Closed,07:00–20:00,07:00–20:00,07:00–20:00,07:00–20:00,07:00–20:00,07:00–20:00,Allentown,18103
Riviera Pizza and Pasta,0x8834bde6561fb205:0x70838932ffc4066d,40.5883477,-79.7207474,3.9,128,11:00–21:00,11:00–21:00,11:00–21:00,11:00–21:00,11:00–22:00,11:00–22:00,11:00–21:00,Lower Burrell,15068
Burrata,0x89c6c61a1bbc5555:0x9f23784468499d64,39.9339259,-75.1653087,4.8,158,5–9:30PM,5–9:30PM,5–9:30PM,5–9:30PM,5–9:30PM,17:00–22:00,16:00–21:00,Philadelphia,19147
Mamma's Pizza,0x89c8f1e2ff172c81:0x65c90591224ab349,40.052419,-76.933818,4.0,185,Closed,11:00–21:00,11:00–21:00,11:00–21:00,11AM–9:30PM,11AM–9:30PM,11:00–21:00,Wellsville,17365
Drinker Pizza,0x89c4dbe33c619dc9:0xbacdd627f4a0ea4f,41.4190921,-75.61697029999999,4.4,186,Closed,Closed,11:00–21:00,11:00–21:00,11:00–21:00,11:00–21:00,11:00–21:00,Dunmore,18512
Bella Roma Pizza Kitchen,0x89c6c20a5f3936a1:0xc469f79a4d4ced48,39.9245547,-75.3392578,4.4,78,10:00–22:00,10:00–22:00,10:00–22:00,10:00–22:00,10:00–22:00,10:00–22:00,11:00–21:00,Springfield,19064
U'Panzerott,0x89c6af9797f46949:0xe9849d0bb37bf67c,40.184801199999995,-75.1333583,4.6,156,Closed,Closed,4–9:30PM,11AM–9:30PM,11AM–9:30PM,11AM–9:30PM,4:30–9:30PM,Horsham,19044
Taco Pizza,0x89c691725f026c57:0x92057ffa6c044f97,40.136853099999996,-75.4712476,4.2,128,10:00–21:00,10:00–21:00,10:00–21:00,10:00–21:00,10:00–22:00,11:00–22:00,11:00–21:00,Oaks,19456
Casa Mia,0x89c43dd5a17f8219:0xc0d66b67d9815cb6,40.5866993,-75.3847224,4.2,78,11:00–21:00,11:00–21:00,11:00–21:00,11:00–21:00,11:00–22:00,11:00–22:00,00:00–21:00,Bethlehem,18015
Finos La Cantina,0x89c42199a51636c9:0x1aaf2abbcbfee0ce,40.411141099999995,-75.37900379999999,4.3,178,10:30AM–9:30PM,10:30AM–9:30PM,10:30AM–9:30PM,10:30AM–9:30PM,10:30AM–10PM,10:30AM–10PM,10:30AM–9:30PM,Quakertown,18951
Parma Pizza & Grill,0x89c6211fe01af895:0x4180a03228b24428,40.0957049,-76.409701,3.9,148,10:30AM–9:30PM,10:30AM–9:30PM,10:30AM–9:30PM,10:30AM–9:30PM,10:30AM–10:30PM,10:30AM–10:30PM,10:30AM–9:30PM,Landisville,17538
Italian Delight Pizza & Family Restaurant,0x89c42213400d888b:0xebdf641e83ba7833,40.446401,-75.3575012,3.8,98,10AM–9:45PM,10:00–22:00,10:00–22:00,10AM–9:30PM,10AM–10:30PM,10AM–10:30PM,11:00–21:00,Quakertown,18951
Giorgio's Pizza & Subs,0x89c6f484df713003:0x8a4206e7677e1efe,40.029699699999995,-75.6321494,4.4,198,10:30AM–9PM,10:30AM–9PM,10:30AM–9PM,10:30AM–9PM,10:30AM–10PM,10:30AM–10PM,11:30AM–9PM,Exton,19341
Quality Pizza,0x89c6b6c29ecd90f1:0x1ac4a64563db2606,40.0508737,-75.094515,3.9,198,10:00–23:00,10:00–23:00,10:00–23:00,10:00–23:00,10:00–00:00,11:00–00:00,00:00–22:00,Philadelphia,19111
Pat's Pizza,0x89c62463618d0f7b:0x17c3384977cb0ea,40.0524063,-76.3233108,4.0,278,10:00–21:00,10:00–21:00,10:00–21:00,10:00–21:00,10AM–9:30PM,10AM–9:30PM,10:00–21:00,Lancaster,17603
Angelo's Pizza & Subs,0x89c8ba173210709b:0x1529a8366c611f89,40.3365698,-76.72007889999999,4.3,148,11:00–21:00,11:00–21:00,11:00–21:00,11:00–21:00,11:00–22:00,11:00–22:00,11:00–21:00,West Hanover Township,17112
Chewys,0x89cb910e55555555:0xd6872cba0ff42c73,40.5165477,-78.38953599999999,4.3,138,11:00–22:00,11:00–22:00,11:00–22:00,11:00–22:00,11:00–22:00,11:00–22:00,00:00–21:00,Altoona,16602
Mariano's La Puccia,0x89c518d0c2efbb31:0x12858beeb6a9ffb3,41.3219147,-75.81554129999999,4.8,188,Closed,15:00–21:00,15:00–21:00,15:00–21:00,15:00–22:00,15:00–22:00,Closed,Exeter,18643
Flavio's Restaurant,0x8834ba0c3d3875ed:0x1d258272b40eb10c,40.582777799999995,-79.5675,4.6,104,Closed,Closed,17:00–21:00,17:00–21:00,17:00–21:00,17:00–21:00,16:00–20:00,Apollo,15613
Arancini House,0x8834f7718ad6ff41:0xe8c41e761dd0c4aa,40.3823722,-80.0437379,4.8,138,08:00–15:00,08:00–15:00,08:00–15:00,08:00–17:00,08:00–17:00,10:00–14:00,Closed,Pittsburgh,15228
il Granaio,0x89c691f072d9558b:0xa2e660016d92bf88,40.1339226,-75.5155272,4.8,328,Closed,11:30AM–9PM,11:30AM–9PM,11:30AM–9PM,11:30AM–10PM,11:30AM–10PM,11:30AM–9PM,Phoenixville,19460
Amici Pizza,0x89c8c2941cfbe853:0xc66d6e180f33317f,40.2370571,-76.9824301,4.7,160,Closed,11AM–8:30PM,11AM–8:30PM,11AM–8:30PM,11AM–9:30PM,11:00–21:00,00:00–19:00,Mechanicsburg,17050
Papp's Pizza,0x89c6c73164a11041:0xafd45f7a98662ddd,39.9827216,-75.2416834,3.9,373,11:00–23:00,11:00–23:00,11:00–23:00,11:00–23:00,11:00–00:00,11:00–00:00,00:00–22:00,Philadelphia,19151
Fila's Pizza,0x89c6b691ec444555:0x2fbf1852513b4365,40.039460299999995,-75.0777664,3.5,118,11:00–23:00,11:00–23:00,11:00–23:00,11:00–23:00,11:00–00:00,11:00–00:00,00:00–23:00,Philadelphia,19149
Via Roma Italian Restaurant & Sports Bar,0x89c6971944134fef:0x334a06bcdb17d8ae,40.1569322,-75.406568,4.1,108,11:00–22:00,11:00–22:00,11:00–22:00,11:00–22:00,11:00–23:00,11:00–22:00,11:00–22:00,Eagleville,19403
Di Carlos Italian Restaurant Pizza,0x89c6ac7e72ef69d7:0xe5da541c53f686b,40.2160364,-75.01585089999999,4.5,95,10:00–22:00,10:00–22:00,10:00–22:00,10:00–22:00,10:00–23:00,10:00–23:00,00:00–21:00,Southampton,18954
Drexel hill pizza,0x89c6c19186ba89cb:0xf17f215747d02f25,39.9505756,-75.3120184,4.1,166,10:00–23:00,10:00–23:00,10:00–23:00,10:00–23:00,10:00–00:00,10:00–00:00,11:00–22:00,Drexel Hill,19026
Vito's Bistro,0x89c51f41a79d5ded:0x8d8e58779d3f073c,41.3348486,-75.7869967,4.6,88,11:00–21:00,11:00–21:00,11:00–21:00,11:00–21:00,11:00–22:00,Closed,Closed,Pittston,18640
2 Kings Pizza,0x89c5818c343e5d21:0xfc9a3652bcec77d7,41.066600799999996,-76.43186829999999,4.6,68,10:00–22:00,10:00–22:00,10:00–22:00,10:00–22:00,10:00–23:00,10:00–23:00,Closed,Orangeville,17859
Sports Pizza By Kio,0x89c1518b432b2b1d:0xe647c5db51bbeaf9,40.136550299999996,-74.83251039999999,4.5,26,11:00–22:00,11:00–22:00,11:00–22:00,11:00–22:00,11:00–23:00,11:00–23:00,00:00–22:00,Levittown,19055
House of Pasta,0x89c62453fb990c39:0x2b4112cff06935a2,40.028832699999995,-76.3240033,3.9,247,11:00–23:00,11:00–23:00,11:00–23:00,11:00–23:00,11:00–23:00,11:00–23:00,11:00–23:00,Lancaster,17603
King Diner,0x89c6855d6b8483c3:0x6cfaae5d95f028e1,40.2430616,-75.61803549999999,3.7,58,15:00–22:00,07:00–22:00,07:00–22:00,07:00–22:00,07:00–22:00,07:00–22:00,07:00–22:00,Pottstown,19464
Bella Cucina,0x88331ea826c69ab1:0xc028b548ae9255a9,41.397819399999996,-79.8293844,4.7,345,Closed,11:00–14:00,11:00–14:00,11:00–14:00,11:00–14:00,11:00–14:00,Closed,Franklin,16323
LaValle's Italian Gardens at The Royal Inn,0x89cd01011987fae7:0x642720b039498b42,41.4056473,-78.70670319999999,4.7,18,4:30–9:30PM,4:30–9:30PM,4:30–9:30PM,4:30–9:30PM,4:30–9:30PM,4:30–9:30PM,Closed,Ridgway,15853
Monte Cello's of Shaler,0x8834f2c8a535764d:0x9e073129ea29360c,40.5110032,-79.9452014,4.3,138,11:00–21:00,11:00–21:00,11:00–21:00,11:00–21:00,11:00–22:00,11:00–21:00,16:00–21:00,Pittsburgh,15223
Franco's Pizzeria,0x89c6a7dd55919603:0xc65d406b81a5d82e,40.3001022,-75.1664962,4.2,58,11:00–21:00,11:00–21:00,11:00–21:00,11:00–21:00,11:00–21:00,11:00–21:00,14:00–21:00,Doylestown,18901
Brothers Pizza,0x89cea7d5a327bfa3:0xea458157d32ddb6a,40.8026074,-77.8860603,4.0,158,10:30AM–9PM,10:30AM–9PM,10:30AM–9PM,10:30AM–9PM,10:30AM–10PM,10:30AM–10PM,Closed,State College,16803
"Camillos Italian Restaurant, Pizzeria & Bar",0x89c5d24b09decc27:0xb0940e595bc90725,40.521315,-75.7797472,4.2,295,11:00–21:00,11:00–21:00,11:00–21:00,11:00–21:00,11:00–22:00,11:00–22:00,11:00–21:00,Kutztown,19530
Palumbo Pizza,0x89c8c28b999df88b:0x3dcef6ff7cbc2a1,40.236045999999995,-76.969355,4.3,207,10:30AM–9PM,10:30AM–9PM,10:30AM–9PM,10:30AM–9PM,10:30PM–12AM,00:00–22:00,10:30AM–9PM,Hampden Township,17050
Viggiano's Italian Restaurant,0x89c6be5cbaae2111:0x63d8da170102f75f,40.0736432,-75.30562809999999,4.5,194,Closed,Closed,5–8:30PM,5–8:30PM,5–9:15PM,5–9:15PM,16:00–20:00,Conshohocken,19428
Basso,0x89c493c9d919f04d:0x66e8f899bb9dbaa8,41.158225699999996,-75.28003819999999,4.5,204,Closed,4:30–8PM,4:30–8PM,4:30–8PM,4:30–9PM,4:30–9PM,Closed,Cresco,18326
DEMORE'S PIZZERIA,0x8834f3107cadecfd:0x6f8951cb452d682b,40.494932999999996,-79.97582,3.9,204,Closed,11:00–21:00,11:00–21:00,11:00–21:00,11:00–23:00,11:00–23:00,Closed,Pittsburgh,15209
Pasta On Time,0x89c1504debdeda37:0xd3aa9ee77ec4251c,40.143932199999995,-74.8226269,4.2,176,10:30AM–10PM,10:30AM–10PM,10:30AM–10PM,10:30AM–10PM,10:30AM–11PM,10:30AM–10:30PM,11:30AM–10PM,Levittown,19055
Tre Scalini Ristorante,0x89c43e4c389b9f5b:0x636f595f8b9e01ce,40.622391,-75.3723327,4.7,135,Closed,17:00–22:00,17:00–22:00,17:00–22:00,17:00–22:00,17:00–22:00,Closed,Bethlehem,18018
Marino's Pizza Ristorante,0x89c8bec7de5604ef:0x1bc1f2f31ee7810b,40.2661623,-76.75938289999999,4.4,124,Closed,Closed,Closed,10:30AM–7:45PM,10:30AM–8:45PM,11AM–8:45PM,Closed,Harrisburg,17111
Villa Roma,0x89c515af62137fa9:0xf7bc0b857a3d880c,41.3520934,-76.031461,4.8,27,Closed,Closed,17:00–21:00,17:00–21:00,17:00–21:00,17:00–21:00,17:00–21:00,Harveys Lake,18618
Le Onde Ristorante BYOB,0x89c6b7a68900e8af:0x95c3236ea06ca5ce,40.072019499999996,-75.127575,4.9,88,Closed,16:00–21:00,16:00–21:00,16:00–21:00,11:00–21:00,11:00–21:00,11:00–21:00,Elkins Park,19027
D'Angelo's Ristorante Italiano,0x89c6c639ae2ac73b:0xc53e7aceb1df1208,39.9487283,-75.17439329999999,4.2,214,Closed,16:00–22:00,16:00–22:00,16:00–22:00,16:00–22:00,16:00–22:00,Closed,Philadelphia,19103
Pronto restaurant,0x89c4df326d23334b:0xda66a0b373b2e550,41.4126654,-75.6797763,4.9,68,4:30–9PM,4:30–9PM,4:30–9PM,4:30–9PM,4:30–10PM,4:30–10PM,Closed,Scranton,18504
Oip,0x89c95edf61111f6b:0x118b2559250a4bfe,40.3940803,-77.88027079999999,4.3,170,Closed,11:00–21:00,11:00–21:00,11:00–21:00,11:00–22:00,11:00–22:00,11:00–21:00,Mt Union,17066
Angelo's Pizzateria,0x89c4d9a5985ff227:0x690241a73ef19f2c,41.4594075,-75.6542211,3.8,28,10:00–21:00,10:00–21:00,10:00–21:00,10:00–21:00,10:00–21:00,10:00–21:00,11:00–18:00,Scranton,18505
Taormina's Pizzeria in Dublin Pa,0x89c41c50ac6237df:0xc029f6ad218649f1,40.3749348,-75.20636089999999,4.4,118,Closed,11:00–21:00,11:00–21:00,11:00–21:00,11:00–22:00,11:00–22:00,00:00–21:00,Dublin,18917
Francescos,0x8834e4b5403ddcbd:0x1d1db01260d85b2a,40.2767789,-79.90492139999999,4.5,118,Closed,11:00–21:00,11:00–21:00,11:00–21:00,11:00–22:00,17:00–22:00,4:30–9PM,Jefferson Hills,15025
Johnnie's Italian Restaurant,0x89c6b67f226dba95:0x1d2cdd2750e05778,40.0227619,-75.0636226,4.5,127,Closed,15:00–22:00,15:00–22:00,15:00–22:00,15:00–22:00,15:00–22:00,15:00–22:00,Philadelphia,19135
Eatalia,0x89c6c83796afd613:0xba23419356cc61f0,39.97504,-75.11838,4.3,147,12–8:30PM,12–8:30PM,12–8:30PM,12–8:30PM,12–8:30PM,5–9:30PM,2–8:30PM,Philadelphia,19125
Giorgio's Pizza Restaurant,0x89c5ec653f9ebedf:0xb2a1e3b0c9ce36b0,40.720136,-76.1909795,4.7,148,Closed,11:00–20:00,11:00–20:00,11:00–20:00,11:00–20:00,11:00–20:00,Closed,St Clair,17970
Italian Delight Of Lansdale,0x89c6a25d20ad0017:0xd8251d0bcdaaaa81,40.230478999999995,-75.311944,4.1,58,10:00–21:00,10:00–21:00,10:00–21:00,10:00–21:00,10AM–10:30PM,10AM–10:30PM,11:00–21:00,Lansdale,19446
Crivellaro's Ristorante,0x89c46ccfbeaed719:0x76d00ad975422a2e,40.653720899999996,-75.2147873,4.4,36,Closed,5:30–10PM,5:30–10PM,5:30–10PM,5:30–10PM,5:30–10PM,5:30–8PM,Williams Township,18042
Bella Cucina Pizzeria,0x89c69c5fd8cb78ab:0xbfeba1740526a394,40.3004913,-75.4799347,4.4,88,Closed,11:00–21:00,11:00–21:00,11:00–21:00,11:00–21:00,11:00–21:00,11:00–21:00,Perkiomenville,18074
Pizzeria Visco,0x89c68ac7f260a859:0x671e2dd415728f97,40.0768874,-75.6899083,4.3,114,Closed,11:00–20:00,11:00–20:00,11:00–20:00,11:00–20:00,11:00–20:00,00:00–20:00,Chester Springs,19425
T-N-T Pizza,0x883448ea2192b4fb:0x34e63556c8768355,40.3828916,-80.39259059999999,3.9,98,15:00–20:00,15:00–20:00,15:00–20:00,15:00–20:00,15:00–20:00,15:00–20:00,15:00–20:00,Burgettstown,15021
Mama Mia's Pizzeria,0x88328086a892d041:0x4094078a9ba1bbf6,42.089699599999996,-80.0982306,4.4,173,Closed,Closed,15:00–21:00,15:00–21:00,15:00–22:00,15:00–22:00,13:00–20:00,Erie,16508
Carmine's Pizzeria West Chester,0x89c6f162debe5555:0x72e9dcba49556270,39.9711535,-75.5870596,3.6,154,10:00–22:00,10:00–22:00,10:00–22:00,10:00–22:00,10:00–23:00,10:00–23:00,10:00–22:00,West Chester,19380
Bravo Pizza II,0x89c6b784f9dca0af:0x8de6d48f3500e73,40.0304119,-75.1456053,3.4,168,11AM–9:30PM,11AM–9:30PM,11AM–9:30PM,11AM–9:30PM,11AM–10:30PM,11AM–10:30PM,12:30–9:30PM,Philadelphia,19141
Fellini's Pizzeria Jefferson Hills,0x8834e52aa1f33957:0x1a2e805a594bf64c,40.3107146,-79.9367968,3.9,88,11:00–22:00,11:00–22:00,11:00–22:00,11:00–22:00,11:00–23:00,11:00–23:00,11:00–22:00,Jefferson Hills,15025
Little Nippers 2,0x8834f23acc0b8eab:0x9cfb2a39e522171f,40.450388,-79.950885,4.1,124,11AM–11:30PM,11AM–11:30PM,11AM–11:30PM,11AM–11:30PM,11AM–1:30AM,11AM–1:30AM,11AM–11:30PM,Pittsburgh,15213
"Pastoli's Pizza, Pasta & Paisans",0x8834f1ff173a8c4b:0x16eae65b36a0101c,40.4358863,-79.92301599999999,4.4,298,2:30–9:30PM,2:30–9:30PM,2:30–9:30PM,11:30AM–9:30PM,11:30AM–10:30PM,11:30AM–10:30PM,11:30AM–9:30PM,Pittsburgh,15217
Catty Pizza,0x89c438f3dc96b583:0x9fb76fc07d279484,40.654584,-75.47354,4.4,117,Closed,11:00–21:00,11:00–21:00,11:00–21:00,11:00–22:00,11:00–22:00,00:00–21:00,Catasauqua,18032
Real Pizza Narberth,0x89c6c0a5edff3bf1:0xb2ba2a99675877e4,40.0059944,-75.2603756,4.4,57,10:30AM–9PM,10:30AM–9PM,10:30AM–9PM,10:30AM–9PM,10:30AM–10PM,10:30AM–9PM,10:30AM–9PM,Narberth,19072
Franco's Italian Restaurant & Pizzeria,0x89c690b5124881eb:0xd96bf39e37516a51,40.176829999999995,-75.43653499999999,4.3,158,Closed,11:00–21:00,11:00–21:00,11:00–21:00,11:00–21:00,11:00–21:00,11:00–21:00,Collegeville,19426
Michelangelos Italian Restaurant LLC,0x89c65ef880dd1e29:0x77a830da470dec4a,40.0365135,-75.76823879999999,4.2,218,10:30AM–9:30PM,10:30AM–9:30PM,10:30AM–9:30PM,10:30AM–9:30PM,10:30AM–10:30PM,11:00–22:00,11AM–9:30PM,Downingtown,19335
Bravo Pizza,0x89c6890a23bee1a3:0x3ea8269ed361d5e7,40.169126999999996,-75.66547299999999,4.0,95,10AM–9:30PM,10AM–9:30PM,10AM–9:30PM,10AM–9:30PM,10:00–22:00,10:00–22:00,10AM–9:30PM,Pottstown,19465
PR's Bar-N-Grill,0x89c88dd614742c35:0xcd495d4cb66f90eb,39.997728599999995,-76.73505,4.2,157,11:00–02:00,11:00–02:00,07:00–02:00,07:00–02:00,07:00–02:00,07:00–02:00,12:00–02:00,York,17406
La Famiglia OIP,0x89cdfb57c096802f:0xe4ca6262b92535ee,41.774491,-78.020367,3.5,157,Closed,11:00–20:00,11:00–20:00,11:00–20:00,11:00–21:00,00:00–21:00,Closed,Coudersport,16915
Pizza Joe's,0x88335d62b296718f:0xbe8d53c3909f75d7,40.9465059,-79.7530213,4.5,104,11:00–20:00,11:00–20:00,11:00–20:00,11:00–20:00,11:00–21:00,11:00–21:00,00:00–20:00,Chicora,16025
City Pizza,0x89c6c8ac064b10e7:0xd549f00be2d4d5f0,39.9215082,-75.1485218,4.0,268,11:00–22:00,11:00–22:00,11:00–22:00,11:00–22:00,11:00–23:00,11:00–23:00,00:00–22:00,Philadelphia,19148
Sal's Pizza,0x89c69480f567c50b:0xfaf497aa87b88a3e,40.073634899999995,-75.4327842,4.2,118,10:30AM–9:30PM,10:30AM–9:30PM,10:30AM–9:30PM,10:30AM–9:30PM,10:30AM–9:30PM,11AM–9:30PM,11:00–21:00,Wayne,19087
Piazza Talarico and Papa Joe’s Wine Cellar,0x8834f24bbdc3e84d:0xc39ae5ea74007b78,40.4647091,-79.9602501,4.7,98,Closed,00:00–20:00,00:00–20:00,00:00–20:00,00:00–21:00,00:00–21:00,Closed,Pittsburgh,15201
CC's Cafe,0x8834ed614778920f:0x8809e33b301d3799,40.4935334,-79.91455119999999,4.6,108,Closed,16:00–22:00,16:00–22:00,16:00–22:00,16:00–22:00,17:00–22:00,Closed,Pittsburgh,15215
Kay's Italian Restaurant,0x89c4c7d5cccdd22b:0x4c1711fc56916000,41.454325,-75.3829902,4.4,184,11:00–21:00,11:00–21:00,11:00–21:00,11:00–21:00,11:00–21:00,11:00–21:00,11:00–21:00,Lake Ariel,18436
Hometown Pizzeria,0x883271b5ae28be97:0x40589aef2a8b5aec,42.0070493,-80.324849,3.9,88,16:00–21:00,16:00–21:00,11:00–21:00,11:00–21:00,11:00–22:00,11:00–22:00,13:00–21:00,Girard,16417
Fratello's Pizzeria and Italian Kitchen,0x89c59daafdb92727:0x9e0c2188ffe8dccf,41.0520344,-76.2209745,4.7,138,Closed,11:00–21:00,11:00–21:00,11:00–21:00,11:00–21:00,11:00–21:00,Closed,Nescopeck,18635
Giovanni's Pizza,0x89c66699ae75fd57:0xe2241fe08169d53f,40.1569,-75.833575,4.4,155,11:00–21:00,Closed,11:00–21:00,11:00–21:00,11:00–22:00,11:00–22:00,11:00–21:00,Elverson,19520
Mannino Italian Garden,0x88325772f6fc074f:0xba1beb5145518fa7,41.63809,-80.15193909999999,4.5,266,Closed,10:30AM–8PM,10:30AM–8PM,10:30AM–8PM,10:30AM–8PM,00:00–20:00,Closed,Meadville,16335
Nino's Italian Restaurant,0x89c676ce72ddd043:0x44d961e7d3418a42,40.346810999999995,-75.959171,4.2,128,Closed,11:00–19:00,11:00–19:00,11:00–19:00,11:00–20:00,16:00–20:00,15:00–19:00,Reading,19610
5 Brother's Pizza,0x89c8c204b63dd975:0xca58f2a4a0a551ba,40.2237,-76.926338,4.3,104,10:00–20:00,10:00–20:00,10:00–20:00,10:00–20:00,10:00–20:00,10:00–20:00,11:00–20:00,Camp Hill,17011
Frank's Pizza,0x89c67a1c8f26f473:0x40ee89f838cc1f47,40.3268786,-75.8859818,4.4,172,Closed,Closed,16:00–20:00,11:00–20:00,11:00–20:00,11:00–20:00,11:00–20:00,Reading,19606
Carmen's Italian Restaurant & Bar,0x89c6c32f9b36c5df:0xfcf67cb4259e7010,39.883981899999995,-75.3353644,4.4,45,Closed,15:00–21:00,15:00–22:00,15:00–22:00,15:00–23:00,15:00–22:00,15:00–22:00,Folsom,19033
Brothers Pizzeria,0x89c485c3750bef33:0xc93b293e915bc591,41.0423526,-75.1265351,4.7,255,11:00–21:00,11:00–21:00,11:00–21:00,11:00–21:00,11:00–21:00,11:00–21:00,00:00–21:00,East Stroudsburg,18301
Pasquale Pizza,0x89c6436b5597d181:0xd76663233bc280a8,40.0360602,-75.9287985,4.2,68,Closed,16:00–22:00,16:00–22:00,16:00–22:00,16:00–22:00,11:00–22:00,15:00–22:00,Honey Brook,19344
Carini's Italian Restaurant,0x89c67791fe2a90b1:0x3fd1dfd556ad12b6,40.3900903,-75.9115894,4.4,107,11:00–21:00,11:00–21:00,11:00–21:00,11:00–21:00,11:00–21:00,11:00–21:00,00:00–21:00,Reading,19605
Casa' Doria Pizza,0x89c89cbc29271307:0x961a9af97b839c35,40.0255632,-76.5318021,4.6,154,Closed,11:00–23:00,11:00–23:00,11:00–23:00,11:00–00:00,11:00–00:00,00:00–23:00,Wrightsville,17368
Bob's Pizza and Chicken,0x89c6c114d0fca1a9:0x9db048a361859854,39.954117,-75.274096,3.6,58,10:00–22:00,10:00–22:00,10:00–22:00,10:00–22:00,10:00–22:00,10:00–22:00,10:00–22:00,Upper Darby,19082
Original Italian Pizza,0x89cef8e4517a2a65:0x9ace540ecd31b4d3,41.184663799999996,-77.3187482,4.3,78,Closed,11:00–21:00,11:00–21:00,11:00–21:00,11:00–21:00,11:00–21:00,Closed,Avis,17721
Palermo's Pizza,0x89c690031abc07e3:0x617269b8f2694d8a,40.1982473,-75.523894,3.9,98,10:00–22:00,10:00–22:00,10:00–22:00,10:00–22:00,10:00–22:00,10:00–22:00,11:00–22:00,Royersford,19468
Ristorante Aroma,0x89c6c6241f3c7b9f:0x930caac2a2cf27de,39.944876199999996,-75.1607628,4.7,188,Closed,17:00–22:00,17:00–22:00,17:00–22:00,17:00–23:00,17:00–23:00,17:00–22:00,Philadelphia,19107
Mia Madre Trattoria,0x8834f58a882e4c7b:0x36b2115dd637495c,40.5011754,-80.067173,4.5,138,Closed,4–8:30PM,4–8:30PM,4–8:30PM,16:00–21:00,16:00–21:00,Closed,Avalon,15202
Pizza Joe's,0x88338f230b05d9c3:0x9cd3ac009595d7ab,40.963380199999996,-80.3086031,4.4,118,11:00–21:00,11:00–21:00,11:00–21:00,11:00–21:00,11:00–21:00,11:00–21:00,11:00–21:00,New Castle,16101
3 C's Pizza,0x88336ff4bb054743:0xaf1f10d23ff37f0e,41.003133,-79.89684199999999,3.8,66,15:00–21:00,15:00–21:00,15:00–21:00,15:00–21:00,15:00–22:00,15:00–22:00,15:00–21:00,West Sunbury,16061
Bandbox Pizza,0x89c1511f12793893:0xa2c66a57d01c8ffb,40.1750642,-74.83094369999999,4.3,58,00:00–21:00,00:00–21:00,00:00–21:00,00:00–21:00,00:00–22:00,00:00–22:00,00:00–20:00,Levittown,19054
Gangi Pizza,0x89c4dbd52037448b:0x6d9ea9a5f70c372a,41.446524,-75.61807499999999,4.5,93,Closed,11:00–20:00,11:00–20:00,11:00–20:00,11:00–20:00,11:00–20:00,Closed,Throop,18512
Nonno Alby's Brick-oven Pizza,0x89c6712bf4848edd:0x8f48c07d018d76e3,40.336048,-75.95182299999999,4.6,398,Closed,11:00–21:00,11:00–21:00,11:00–21:00,11AM–9:30PM,11AM–9:30PM,11:00–21:00,West Reading,19611
Ravaila's Restaurant,0x89cb3642f6fe17cb:0xdf3d7d8d65dd58d4,40.4305685,-79.2659036,4.6,306,11:00–20:00,11:00–20:00,11:00–20:00,11:00–20:00,11:00–20:00,11:00–20:00,Closed,Blairsville,15717
Pizza Palace,0x89c61a00cab3f541:0x14c8a573096a0f0d,40.223558,-76.27275,4.5,118,11:00–21:00,11:00–21:00,11:00–21:00,11:00–21:00,11:00–22:00,11:00–22:00,11:00–21:00,Lititz,17543
Roseanna's Pizza & Pasta House,0x89c4da7692b18817:0xfb90a4758c387914,41.4633902,-75.61949489999999,4.4,108,10:00–21:00,10:00–21:00,10:00–21:00,10:00–21:00,10:00–23:00,10:00–23:00,10:00–21:00,Dickson City,18519
Tony's Pizza City,0x89c6b9880937bdb3:0x99830417aa326f9c,40.0823044,-75.1893068,4.5,121,Closed,10:00–21:00,10:00–21:00,10:00–21:00,10:00–21:00,10:00–21:00,Closed,Wyndmoor,19038
Mountain Side Pizza,0x89c441d80ad8c005:0xe8dff6448d2d15ec,40.7730524,-75.4202181,4.5,58,11:00–22:00,11:00–22:00,11:00–22:00,11:00–22:00,11:00–22:00,11:00–22:00,11:00–22:00,Bath,18014
Tre Sazón Kitchen & Bar,0x89c4b1f3873db30d:0x70165a71daf1a15,41.4628521,-75.200165,4.5,105,00:00–21:00,Closed,00:00–21:00,00:00–21:00,00:00–21:00,00:00–21:00,00:00–21:00,Hawley,18428
Sorrento's Pizza,0x89c6b77f463fd1dd:0x352c0b458d455d3c,40.038781,-75.149469,3.6,183,10:00–23:00,10:00–23:00,10:00–23:00,10:00–23:00,10:00–00:00,10:00–00:00,11:00–23:00,Philadelphia,19141
Pizza Roma Of Pine,0x88348f338ac272b1:0x7404b332a9c11a52,40.6611111,-80.0047222,4.4,127,11:00–21:00,11:00–21:00,11:00–21:00,11:00–21:00,11:00–22:00,11:00–22:00,00:00–21:00,Gibsonia,15044
Rocco's Italian Sausage & Cheese Steaks,0x89c6c8b01c555553:0xa786c153c64c9344,39.925657199999996,-75.1427373,4.8,94,07:00–21:00,07:00–21:00,07:00–21:00,07:00–21:00,07:00–21:00,07:00–21:00,09:00–18:00,Philadelphia,19148
Linden Italian Market,0x89c6b483688938cd:0xf3fd9cf0443bdb5d,40.0545478,-75.004327,4.5,186,07:00–19:00,07:00–19:00,07:00–19:00,07:00–19:00,07:00–19:00,8:30AM–6PM,09:00–16:00,Philadelphia,19114
Arelis Italian Restaurante,0x89c43ea1dfe01c2f:0xdbeec8601adce6bb,40.5950565,-75.411279,4.4,178,11:00–20:00,Closed,11:00–20:00,11:00–20:00,10:30AM–8:30PM,11AM–8:30PM,00:00–20:00,Bethlehem,18015
Mm Mm Pizza of Canonsburg,0x88345483d765dae7:0x67dc91860c210997,40.252583,-80.183939,4.1,108,11:00–23:00,11:00–23:00,11:00–23:00,11:00–23:00,11:00–01:00,11:00–01:00,11:00–23:00,Canonsburg,15317
Big Guys Pizza,0x883457ef68e401d5:0xa9bc0781b61adc0a,40.359646999999995,-80.11020099999999,4.1,154,10:30AM–11PM,10:30AM–11PM,10:30AM–11PM,10:30AM–11PM,10:30AM–12AM,10:30AM–12AM,10:30AM–11PM,Bridgeville,15017
Palermo's Pizza,0x89c68e047094b2fd:0xd3b420876dcc8df6,40.1325,-75.5333333,4.1,145,10:00–22:00,10:00–22:00,10:00–22:00,10:00–22:00,10:00–22:00,10:00–22:00,11:00–22:00,Phoenixville,19460
Sole Mio Italian Grille,0x89c46cf85d78592b:0x45fdaea66f30f243,40.6832217,-75.21084859999999,4.1,247,Closed,11:00–21:00,11:00–21:00,11:00–21:00,11:00–22:00,11:00–22:00,00:00–20:00,Easton,18042
Caruso's Italian Restaurant,0x89c617ebd3c62dcd:0x1bd766eabebe1791,40.1513043,-76.250847,4.6,318,Closed,10:30AM–10PM,10:30AM–10PM,10:30AM–10PM,10:30AM–10PM,10:30AM–10PM,10:30AM–10PM,Lititz,17543
Celebre's Pizzeria,0x89c6c5e7ca489be3:0x1b94d4ac7d63608f,39.9113159,-75.1753524,4.4,198,11:00–20:00,11:00–21:00,11:00–21:00,11:00–21:00,11:00–22:00,11:00–22:00,11:00–21:00,Philadelphia,19145
Domenic's Pizza,0x89c6b287007546d1:0x8f4969bcb842e9a,40.1327576,-75.0119661,4.2,155,10:00–22:00,10:00–22:00,10:00–22:00,10:00–22:00,10:00–23:00,10:00–23:00,12:30–8:45PM,Philadelphia,19116
Graziano's Pizzeria & Grill,0x89c61f40a1ddde27:0xe8999baa852b2a5c,40.1722495,-76.3848111,4.6,147,11AM–9:30PM,11AM–9:30PM,11AM–9:30PM,11AM–9:30PM,11:00–22:00,11:00–22:00,Closed,Manheim,17545
Classic Pizza,0x89c6b7d19122cfc3:0x5e36c1a9db6e424,40.0012894,-75.1147082,4.1,167,14:00–23:00,14:00–23:00,14:00–23:00,14:00–23:00,14:00–00:00,14:00–00:00,14:00–23:00,Philadelphia,19134
Lucas Pizza,0x89c6a01838d98011:0x9c8ce8e3b1d51c8b,40.323360099999995,-75.33075939999999,4.3,218,10:00–22:00,10:00–22:00,10:00–22:00,10:00–22:00,10:00–23:00,10:00–23:00,11AM–9:30PM,Telford,18969
Illianos Pizza Restaurant,0x89c6b265af0e9719:0xc38c893c712cb216,40.1289466,-75.0237865,3.9,138,Closed,11:00–21:00,11:00–21:00,11:00–21:00,11:00–21:00,11:00–21:00,11:00–21:00,Philadelphia,19116
Marcello's Pizza,0x89c88ea5db7da0d9:0x6b01c07189aa6690,39.962115999999995,-76.727362,4.3,418,11AM–9:30PM,11AM–9:30PM,11AM–9:30PM,11AM–9:30PM,11AM–10:30PM,11AM–10:30PM,12–9:30PM,York,17401
Anza's Pizza,0x89c88ebef3679081:0xf230db7278976397,39.966485899999995,-76.7149604,3.5,243,11:00–00:00,11:00–00:00,11:00–00:00,11:00–00:00,11:00–01:00,11:00–01:00,Closed,York,17403
Nino's Pizza,0x89c88f3a4a888ecf:0x67cdf99730f1513a,39.956393999999996,-76.679698,4.3,98,Closed,11:00–21:00,11:00–21:00,11:00–21:00,11:00–22:00,11:00–22:00,00:00–21:00,York,17402
Via Roma Pizza,0x89c8c1485c2f48c9:0xf409fcf49a27e7e4,40.283863,-76.89770399999999,4.0,125,10:00–21:00,Closed,10:00–21:00,10:00–21:00,10:00–22:00,00:00–22:00,00:00–21:00,Harrisburg,17110
Pizza Chef Italian restaurant,0x89c46b407f48fd6b:0xea95a518f77d74cc,40.67032,-75.271075,4.3,123,10AM–9:30PM,Closed,10AM–9:30PM,10AM–9:30PM,10AM–9:30PM,10AM–9:30PM,10:00–21:00,Easton,18045
Morrone's Cafe,0x89cfa89f27f4d893:0xcdf78e5ca6cb138a,41.2399656,-77.0157546,4.5,128,Closed,4:30–9:30PM,4:30–9:30PM,4:30–9:30PM,4:30–9:30PM,4:30–9:30PM,Closed,Williamsport,17701
Isabella Pizza,0x89c6c60f8302f4c5:0x35503f7bbcdd4c67,39.927175,-75.16679599999999,3.3,124,10:00–22:00,10:00–22:00,10:00–22:00,10:00–22:00,10:00–22:00,10:00–22:00,10:00–22:00,Philadelphia,19148
Bettina's Italian Restaurant,0x89cd26ba3a7f4b2f:0xffd69f86fb45476b,41.4710719,-79.12136919999999,4.5,318,Closed,10:30AM–8PM,10:30AM–8PM,10:30AM–8PM,10:30AM–9PM,10:30AM–9PM,Closed,Marienville,16239
The Italian American Progressive Club,0x89cd802e33e1ebef:0x95ba19cb6ddc60e,41.9554111,-78.6467973,4.3,48,10:00–02:00,10:00–02:00,10:00–02:00,10:00–02:00,10:00–02:00,08:00–02:00,07:00–02:00,Bradford,16701
Pizza Plaza,0x89c6af9693a00c65:0xc013fefa70a42395,40.182207999999996,-75.135468,4.1,88,10:00–21:00,10:00–21:00,10:00–21:00,10:00–21:00,10:00–21:00,10:00–21:00,00:00–20:00,Horsham,19044
Bella Rosa Italian Eatery,0x89c6585f5de92319:0x7e6621df48d32bcc,39.952304999999996,-75.742171,4.3,167,10AM–9:30PM,10AM–9:30PM,10AM–9:30PM,10AM–9:30PM,10AM–10:30PM,10AM–10:30PM,11AM–9:30PM,West Bradford Township,19320
Rostas Cafe,0x89c5a40a64935a91:0x55d9908752df10f9,40.9652357,-75.9930826,4.6,338,11:00–22:00,Closed,11:00–22:00,11:00–23:00,11:00–23:00,11:00–23:00,11:00–22:00,Hazleton,18201
Arcaro's Pizza,0x89c4d920c2c2815f:0x959afc24cfc19c0d,41.395719299999996,-75.68966979999999,4.4,288,15:00–21:00,Closed,15:00–21:00,15:00–21:00,15:00–21:00,15:00–21:00,15:00–21:00,Scranton,18504
Primaveras Pizza,0x89c4d922ec3c3111:0x4fca1049b380ba7d,41.4317044,-75.6577727,4.8,148,Closed,Closed,15:00–21:00,15:00–21:00,15:00–22:00,15:00–20:00,00:00–20:00,Scranton,18509
Johnnie's,0x89c6c6087bc82649:0xe8cb78b974aa5829,39.9215563,-75.1667326,4.5,78,11:00–20:00,11:00–20:00,11:00–20:00,11:00–20:00,11:00–21:00,11:00–21:00,00:00–20:00,Philadelphia,19148
Sbarro,0x89c6e9da9b4babdf:0xc5f5e07a2db9c74f,39.9153465,-75.3511986,2.9,98,10:00–21:00,10:00–21:00,10:00–21:00,10:00–21:00,10:00–21:00,10:00–21:00,11:00–18:00,Springfield,19064
Maria's Pizza and Pasta,0x89c6be81c1a94eaf:0xbe63e088286fff6c,40.095017,-75.290407,4.4,68,Closed,15:00–20:00,11:30AM–8PM,11:30AM–8PM,11:30AM–8PM,11:30AM–8PM,Closed,Conshohocken,19428
Horsham Pizza,0x89c6afbe55bb9ac1:0xd924104f41316a13,40.1821275,-75.1342535,4.4,178,10:00–22:00,10:00–22:00,10:00–22:00,10:00–22:00,10:00–22:00,10:00–22:00,10:00–22:00,Horsham,19044
Frank's Spaghetti House,0x89c6b6a7fc7aa6e5:0x2a30b0446a15cfbe,40.056183999999995,-75.061858,4.0,208,Closed,15:00–22:00,15:00–22:00,15:00–22:00,15:00–22:00,15:00–22:00,15:00–20:00,Philadelphia,19152
Aleco's Café & Restaurant,0x89c8c1117476d157:0x5889e7c28ee3a2d0,40.265560199999996,-76.88620949999999,4.4,218,10:30AM–10PM,10:30AM–10PM,10:30AM–10PM,10:30AM–10PM,10:30AM–12AM,11:00–00:00,11:00–21:00,Harrisburg,17102
George's Famous Pizza,0x89c6b6f553ce44ed:0x9357d26ecc5ad964,40.029759999999996,-75.084919,4.2,148,16:00–22:00,16:00–22:00,16:00–22:00,13:00–22:00,13:00–22:00,14:00–22:00,14:00–22:00,Philadelphia,19124
Franks Pizza,0x89c6bd10782c3745:0x7e23796530e1d6bf,40.150554,-75.304789,4.3,138,10:00–22:00,10:00–22:00,10:00–22:00,10:00–22:00,10AM–10:30PM,10AM–10:30PM,11AM–9:30PM,Blue Bell,19422
Penn Murry Bar & Kitchen,0x8834c153e79af3bf:0x24c469eee218a55e,40.419546499999996,-79.6524458,4.5,278,11:00–00:00,11:00–00:00,11:00–00:00,11:00–00:00,11:00–00:00,11:00–00:00,11:00–00:00,Export,15632
Stefano's Sicilian Grille,0x89c4473393f745eb:0x4c931b8c1eae9eaf,40.700171,-75.43859499999999,4.4,136,16:00–21:00,16:00–22:00,16:00–22:00,16:00–22:00,14:00–23:00,14:00–23:00,00:00–21:00,Northampton,18067
Giannotti's Ristorante,0x89c5d3e732ce92a9:0xc568e8c1f6d0e101,40.4993189,-75.8013722,4.4,197,Closed,Closed,00:00–20:00,00:00–20:00,00:00–21:00,00:00–21:00,Closed,Kutztown,19530
Lascala's,0x89c6c6319a947a7d:0x78311a4f3a9060d0,39.9545639,-75.1684674,3.5,28,11:00–22:00,11:00–22:00,11:00–22:00,11:00–22:00,11:00–23:00,11:00–23:00,00:00–21:00,Philadelphia,19103
Cuginos,0x89c4d95afbf87c35:0x381ea0a9cdf97018,41.4219017,-75.6300354,4.9,57,07:00–14:00,07:00–14:00,07:00–14:00,07:00–14:00,07:00–11:00,07:00–13:00,07:00–13:00,Dunmore,18512
Double Decker Pizza,0x89c6fac4f40ba7c7:0x4307aae94531ae83,39.8504934,-75.5390711,4.0,145,11AM–9:30PM,11AM–9:30PM,11AM–9:30PM,11AM–9:30PM,10:00–23:00,10:00–23:00,00:00–21:00,Chadds Ford,19317
Bertucci's Italian Restaurant,0x89c694c47583f73f:0x65474e612a18d98b,40.045554599999996,-75.403381,4.2,378,11AM–9:30PM,11AM–9:30PM,11AM–9:30PM,11:00–22:00,11:00–22:00,11:00–22:00,11AM–9:30PM,Wayne,19087
Franks Pizza,0x89c6af6d1b039fef:0xb4f45849e1360d56,40.20064,-75.119041,4.2,138,10:00–22:00,10:00–22:00,10:00–22:00,10:00–22:00,10:00–23:00,10:00–23:00,11:00–22:00,Hatboro,19040
Little John's Pizza,0x89c43977efbdc86d:0x532c67a975b459c5,40.610982,-75.480291,4.0,208,11:00–22:00,11:00–22:00,11:00–22:00,11:00–22:00,11:00–23:00,11:00–23:00,Closed,Allentown,18102
Michaels Restaurant & Lounge,0x89c150d415f9de3b:0xfc01583221689c97,40.1966015,-74.80995899999999,4.2,208,16:00–22:00,16:00–22:00,16:00–22:00,16:00–22:00,16:00–00:00,16:00–00:00,Closed,Morrisville,19067
Come a Casa,0x89c85b183ea6988d:0x3fd4ef13100d7bf1,39.7553359,-76.9539183,4.5,217,10:30AM–9PM,10:30AM–9PM,10:30AM–9PM,10:30AM–9PM,10:30AM–10PM,10:30AM–10PM,11:00–21:00,Hanover,17331
Buon Appetito Ristorante,0x89c85edf18156425:0x72d04641565179b2,39.8463889,-76.8997222,4.5,177,Closed,11:00–21:00,11:00–21:00,11:00–21:00,11:00–22:00,11:00–22:00,11:00–21:00,Spring Grove,17362
Nicoletta's Family Restaurant,0x89cb9196c7bf2725:0x6d44e1b56a581b63,40.509008,-78.402176,4.3,278,07:00–15:00,07:00–15:00,07:00–15:00,07:00–15:00,07:00–15:00,07:00–15:00,07:00–15:00,Altoona,16602
Emilianos Pizza 2,0x89c6aefb7d6ef699:0x48c535023cf31c05,40.199905799999996,-75.101933,4.1,104,11:00–21:00,11:00–21:00,11:00–21:00,11:00–21:00,11:00–22:00,11:00–22:00,11:00–21:00,Warminster,18974
Pizza Phi,0x89cf13b18e6a9473:0x23103988ffa13d21,40.9642829,-76.8853912,4.3,125,Closed,11:00–13:00,11:00–13:00,11:00–13:00,11:00–21:00,11:00–21:00,15:00–20:00,Lewisburg,17837
Sbarro,0x89ca525927bec665:0x45ffad2cb434f795,40.0300333,-78.4931639,2.8,45,10:00–21:00,10:00–21:00,10:00–21:00,10:00–21:00,10:00–21:00,10:00–21:00,10:00–21:00,Bedford,15522
Roma Pizza,0x89c6af4957c78709:0x41cbe058828c48ff,40.2294944,-75.1311187,4.4,107,10:00–22:00,10:00–22:00,10:00–22:00,10:00–22:00,10:00–22:00,10:00–22:00,10:00–22:00,Warrington,18976
Domenick's,0x89c4cdbfeb04aecf:0xa512e821a550aebd,41.571222899999995,-75.5030281,3.8,245,11:00–23:00,11:00–23:00,11:00–23:00,11:00–23:00,11:00–00:00,11:00–00:00,11:00–23:00,Carbondale,18407
Dominick's,0x89c157422864ec87:0xc64e5c3f40a22110,40.209614599999995,-74.7988439,4.3,96,Closed,11:00–23:00,11:00–23:00,11:00–23:00,11:00–23:00,11:00–23:00,00:00–22:00,Morrisville,19067
Vinnie's II,0x89cfe14cecc9e7e9:0x6e3530d842417845,41.785998,-76.7878592,4.1,16,Closed,4:30–9PM,4:30–9PM,4:30–9PM,4:30–9PM,4:30–9PM,Closed,Troy,16947
Lupi's Pizza,0x89c6e5d2aad4d0d9:0xf8ee07e99a6427e3,39.833706,-75.44285099999999,4.3,234,11:00–22:00,11:00–22:00,11:00–22:00,11:00–22:00,11:00–23:00,11:00–23:00,00:00–21:00,Boothwyn,19061
Ricci's Italian Sausage,0x883458d633add927:0xf491f4b2bd61ed0b,40.475231099999995,-80.0987751,4.7,153,8:30AM–5PM,8:30AM–5PM,8:30AM–5PM,8:30AM–5PM,8:30AM–5PM,09:00–16:00,Closed,McKees Rocks,15136
Sebastiano's Italian Restaurant And Pizzeria,0x89c67a228b04301f:0xfbaaceb06179411a,40.3229359,-75.8756349,4.6,306,Closed,10:30AM–8:30PM,10:30AM–8:30PM,10:30AM–8:30PM,10:30AM–8:30PM,10:30AM–8:30PM,11:30AM–8:30PM,Reading,19606
Sophia's Italian Restaurant & pizzeria,0x89c67a20ef7b63ef:0x3b172431249cb949,40.328343499999995,-75.8725245,4.3,194,Closed,11:00–21:00,11:00–21:00,11:00–21:00,11:00–21:00,11:00–21:00,00:00–21:00,Reading,19606
Pizza Joe's,0x8832d40c3929302f:0x2314d602e0b22944,41.505161699999995,-79.4535123,4.4,184,11:00–20:00,11:00–20:00,11:00–20:00,11:00–20:00,11:00–21:00,11:00–21:00,11:00–20:00,Tionesta,16353
Parente's Italian Food Center,0x89c51f3ef2aad83d:0xd037195fb12618b,41.327875299999995,-75.7885077,4.5,28,09:00–17:00,09:00–17:00,Closed,Closed,Closed,09:00–17:00,09:00–17:00,Pittston,18640
Italian Village Pizza Ridge road,0x8834fb8dc1c5a5fd:0x7e8599ff7eae0f51,40.2899539,-79.9818445,4.4,68,Closed,11:00–20:00,11:00–20:00,11:00–20:00,11:00–21:00,11:00–21:00,00:00–19:00,South Park Township,15129
Bruno Scipioni's Italian Ristorante & Pizzeria,0x89c46ab5da6b503b:0x6307b1e7a199c189,40.6639639,-75.31965,4.5,368,11:00–20:00,11:00–20:00,11:00–20:00,11:00–20:00,11:00–22:00,11:00–22:00,11:00–20:00,Bethlehem,18020
Tredici Italian Market,0x89c69520dffd8ecb:0xf43aec1459ba9689,40.044154,-75.385155,4.9,114,10:00–15:00,10:00–15:00,10:00–15:00,10:00–15:00,10:00–15:00,Closed,Closed,Wayne,19087
Capri Pizza Westmont,0x89cb16e96d1d5507:0x66011b608f06b898,40.3233093,-78.9581005,4.2,152,09:00–21:00,09:00–21:00,09:00–21:00,09:00–21:00,10:00–22:00,10:00–22:00,11:00–21:00,Johnstown,15905
Trevi 5 at The Hotel Hershey,0x89c8bb23e425e30d:0x72fd199aea89b6a,40.2996622,-76.6600531,4.4,134,Closed,11:30AM–9PM,11:30AM–9PM,11:30AM–9PM,11:30AM–9:30PM,11:30AM–9:30PM,Closed,Hershey,17033
Fourno Pizza & Grill,0x89c6c130ac4e2277:0x790eadadbdc01201,39.949270999999996,-75.30787099999999,4.5,178,10:00–22:00,10:00–22:00,10:00–22:00,10:00–22:00,10:00–23:00,10:00–23:00,11:00–21:00,Drexel Hill,19026
Carini's Pizza Restaurant,0x89c5944fcb76be0b:0x674a621c558be7ea,40.813078999999995,-76.14086,3.8,185,Closed,Closed,11:00–21:00,11:00–21:00,11AM–9:30PM,11AM–9:30PM,00:00–21:00,Mahanoy City,17948
Nobile's Italian Restaurant,0x8834d9f390c2323d:0x77f3971ac6d96f8a,40.2393417,-79.5791854,4.4,135,Closed,16:00–21:00,16:00–21:00,16:00–21:00,16:00–21:00,16:00–21:00,Closed,Youngwood,15697
Little Italy Pizza,0x89c6c620da1f2a2d:0x57cace9dba7e0b40,39.9428416,-75.1572058,4.2,217,11:00–22:00,11:00–22:00,11:00–22:00,11:00–22:00,11:00–23:00,11:00–23:00,11:00–22:00,Philadelphia,19147
Walt's Pizza & Grille,0x89c6c3d48f9b482b:0x245145fb2e718d87,39.931883899999995,-75.2913531,4.1,234,11:00–22:00,11:00–22:00,11:00–22:00,11:00–22:00,11:00–23:00,11:00–23:00,00:00–21:00,Clifton Heights,19018
La Rustica Trattoria,0x89c4cb128aa48ae1:0xdc2f0daba78452d8,41.5881839,-75.4084276,4.3,67,Closed,11:00–21:00,11:00–21:00,11:00–21:00,11:00–22:00,11:00–22:00,00:00–21:00,Waymart,18472
Alfred's Victorian,0x89c8bdfef90adfed:0x34e921030623bd34,40.195658,-76.7306073,4.2,138,Closed,Closed,Closed,Closed,4:30–9PM,4:30–9PM,Closed,Middletown,17057
Sbarro,0x8834ebd965a215ab:0x7b675b99d7fc1e7c,40.4295192,-79.7947472,3.9,48,11:00–19:00,11:00–19:00,11:00–19:00,11:00–19:00,11:00–20:00,11:00–20:00,00:00–18:00,Monroeville,15146
Ristorante Denicola,0x89c6ac7e796a94f3:0x746a59b82821dc79,40.2164125,-75.0165863,4.5,165,Closed,11AM–9:30PM,11AM–9:30PM,11AM–9:30PM,11AM–10:30PM,11AM–10:30PM,11AM–9:30PM,Richboro,18954
Pie In the Sky,0x89c63b2c12f3a92f:0xfeb733d1b5decaed,40.022867999999995,-76.266543,4.7,238,11AM–9:30PM,11AM–9:30PM,11AM–9:30PM,11AM–9:30PM,11AM–10:30PM,11AM–10:30PM,11AM–9:30PM,Lancaster,17602
Sal's Original Italian Pizza,0x89cb8dfc2df63c75:0x931f3425fd93cc5a,40.538787,-78.381183,4.7,98,16:00–21:00,16:00–21:00,16:00–21:00,16:00–21:00,16:00–21:00,16:00–21:00,Closed,Altoona,16601
Villa Nova West,0x89c6269262aef093:0x18719fd3bc28d2d5,40.0416034,-76.38393049999999,4.0,338,11:00–02:00,11:00–02:00,11:00–02:00,11:00–02:00,11:00–02:00,11:00–02:00,12:00–02:00,Lancaster,17603
Garlic Knot,0x89c5a87f2e81bc63:0xacd8503c01c1b8c6,41.014641,-75.897472,4.1,198,15:00–21:00,15:00–21:00,15:00–21:00,15:00–21:00,11:00–21:00,15:00–21:00,Closed,Freeland,18224
Hubcaps Pizza,0x89cb8224210297c9:0x6f154ca82699dd69,40.6325947,-78.6268544,4.5,158,Closed,Closed,Closed,11:00–21:00,11:00–22:00,11:00–22:00,13:00–21:00,Patton,16668
Tre Ragazzi,0x89cb9e97f59de567:0x1636751fd3a32264,40.4634711,-78.5900638,4.4,128,11AM–8:30PM,11AM–8:30PM,11AM–8:30PM,11AM–8:30PM,11AM–8:30PM,11AM–8:30PM,11AM–8:30PM,Cresson,16630
J & S Pizza II And Italian Restaurant,0x89c5e29e5fb2a85f:0x9591fbe9c7d5da86,40.4884376,-76.24605559999999,4.5,413,10:30AM–9PM,10:30AM–9PM,10:30AM–9PM,10:30AM–9PM,10:30AM–9PM,10:30AM–9PM,11:00–21:00,Bethel,19507
Pizza Peddler,0x89c6f0f7692a176f:0x4642348ebd2dc830,39.9212756,-75.57587079999999,4.3,168,11:00–20:00,11:00–20:00,11:00–20:00,11:00–20:00,11:00–21:00,11:00–21:00,11:00–20:00,West Chester,19382
Capri Pizza & Restaurant,0x89cb11480114b607:0xbb7a2bd06e0592d,40.324976299999996,-78.91777259999999,3.9,118,09:00–15:00,09:00–15:00,09:00–15:00,09:00–15:00,09:00–15:00,Closed,Closed,Johnstown,15901
Sabatino's Pizzeria Grill And Restaurant,0x89c6f18b2d1009ab:0xe42008857a465721,39.9661374,-75.5503633,4.4,145,10:00–21:00,10:00–21:00,10:00–21:00,10:00–21:00,10:00–22:00,11:00–22:00,00:00–21:00,West Chester,19382
Pasquale's Pizzeria,0x8834eb68db4f606b:0xc4b570a1ff960a63,40.4846534,-79.8158856,4.2,198,11AM–10:30PM,11AM–10:30PM,11AM–10:30PM,11AM–10:30PM,11AM–11:30PM,11AM–11:30PM,11AM–10:30PM,Penn Hills,15235
DiSalvo's Lounge,0x89cfa6172d8bd7b7:0x55eba75c352824cf,41.245137,-76.99655899999999,4.8,46,Closed,Closed,Closed,Closed,17:00–22:00,17:00–22:00,Closed,Williamsport,17701
Original Italian Pizza and Restaurant,0x89cfa6a85269e399:0x97fa433a98ef39d8,41.2497963,-76.9270761,4.2,166,Closed,11:00–21:00,11:00–21:00,11:00–21:00,11:00–21:00,11:00–21:00,11:00–21:00,Montoursville,17754
Bart's Pizzeria,0x89cfa89e1825bda5:0xc9f86b5953d5dcfc,41.2381819,-77.0116611,4.6,238,Closed,11:00–21:00,11:00–21:00,11:00–21:00,11:00–22:00,11:00–22:00,15:00–20:00,Williamsport,17701
BIG DADDYS PIZZA,0x89c686840730b73d:0x47932ec3ef16bd23,40.2655953,-75.62641409999999,4.3,78,11:00–21:00,11:00–21:00,11:00–21:00,11:00–21:00,11:00–22:00,11:00–22:00,Closed,Pottstown,19464
Milton's Pizza & Pasta,0x89c65b13b79e25bb:0x956f33450738599e,39.9845833,-75.8691528,3.5,127,10:00–22:00,10:00–22:00,10:00–22:00,10:00–22:00,10:00–23:00,10:00–23:00,11:00–22:00,Coatesville,19320
Original Italian Pizza and Restaurant,0x89cf9f034e5ce0e9:0xf26b8a1fec0860ee,41.2055188,-76.7843697,3.7,172,10:30AM–10PM,10:30AM–10PM,10:30AM–10PM,10:30AM–10PM,10:30AM–11PM,10:30AM–10PM,10:30AM–10PM,Muncy,17756
Carrazza's Italian Restaurant,0x89c49264aa119423:0x7bc81321d06a553e,41.1401405,-75.2886059,4.4,73,11:00–22:00,11:00–22:00,11:00–22:00,11:00–22:00,11:00–22:00,11:00–22:00,11:00–22:00,Cresco,18326
Fellinis Pizzeria White Oak,0x8834e61d64515d9f:0x67eb55360fd3fe4b,40.346983099999996,-79.8171641,3.7,148,11:00–22:00,11:00–22:00,11:00–22:00,11:00–22:00,11:00–23:00,11:00–23:00,11:00–22:00,White Oak,15131
Giuseppe's Pizzeria,0x8834c71b26d27571:0xb018c4aaf2c589a0,40.4189116,-79.6268738,4.2,86,11:00–22:00,11:00–22:00,11:00–22:00,11:00–22:00,11:00–22:00,11:00–22:00,00:00–21:00,Export,15632
Bella Napoli Trattoria,0x89c46a23f197dc21:0x673b50da24632686,40.7317707,-75.3122849,4.1,118,Closed,11:00–21:00,11:00–21:00,11:00–21:00,11:00–22:00,11:00–22:00,14:00–19:00,Nazareth,18064
Original Italian Pizza,0x89d00720a47d0c37:0xb105a289201e5dd7,41.770166499999995,-76.4208699,4.1,258,10:30AM–8PM,10:30AM–8PM,10:30AM–8PM,10:30AM–8PM,10:30AM–9PM,10:30AM–9PM,10:30AM–8PM,Towanda,18848
Sapori Italian Restaurant and Pizza,0x89c41df8f41ab48d:0xadbc779c315e84fc,40.3527191,-75.2769649,4.4,167,Closed,10:30AM–10PM,10:30AM–10PM,10:30AM–10PM,10:30AM–10PM,10:30AM–10PM,00:00–22:00,Perkasie,18944
Angelia's Italian Grille,0x8834f5f5f668685b:0xe9c7ed24d7f4c934,40.4749395,-80.0998461,4.1,254,10:30AM–10PM,10:30AM–10PM,10:30AM–10PM,10:30AM–10PM,10:30AM–11PM,11:00–23:00,11:00–22:00,McKees Rocks,15136
Lupi's Famous Pizza,0x8834f35a5c0bda53:0xe61863f203d49b6e,40.5133206,-80.0007588,3.8,133,10:30AM–9:30PM,10:30AM–9:30PM,10:30AM–9:30PM,10:30AM–9:30PM,10:30AM–11:30PM,10:30AM–11:30PM,11:30AM–9:30PM,Pittsburgh,15237
Mojo Pizza,0x89c6b467ee4eef0d:0x8a0ea8abfcc332f3,40.0421731,-75.02506749999999,3.3,58,11:00–22:00,11AM–9:30PM,11AM–9:30PM,11AM–9:30PM,11AM–10:30PM,11AM–10:30PM,11AM–9:30PM,Philadelphia,19136
Pizza Pasta House II,0x89c6ba8fe2d29fc7:0xfd7e9ef4be1f142a,40.130589,-75.166338,3.7,48,10:00–22:00,10:00–22:00,10:00–22:00,10:00–22:00,10:00–23:00,10:00–23:00,09:00–21:00,Dresher,19025
Pizza Italia,0x89c677666b2ee8af:0xbc65119b07a852c3,40.358868,-75.909939,4.6,346,Closed,Closed,10:00–21:00,10:00–21:00,10:00–21:00,11:00–21:00,Closed,Reading,19604
Georgine's Market Place,0x89c14dea1b3467b9:0x7accab7e763f4b83,40.1046918,-74.89165849999999,4.1,48,11:00–22:00,11:00–22:00,11:00–22:00,11:00–22:00,11:00–23:00,11:00–23:00,11:00–22:00,Bristol,19007
New Napoli Pizzeria,0x89c6b1162638a0d3:0xc4924aa54b4843d1,40.0906896,-75.0924765,3.7,58,,,,,,,,Huntingdon Valley,19006
The Italian Taxi,0x89c8e28393ee2ccf:0xd114545597fba479,40.1177108,-77.189784,4.4,264,11:00–21:00,11:00–21:00,11:00–21:00,11:00–21:00,11:00–21:00,11:00–21:00,00:00–20:00,Mt Holly Springs,17065
Caruso's Italian Restaurant & Pizza Shop,0x89c62738b96a88ed:0xb89ade5a59814d2e,40.063501099999996,-76.4307908,4.4,306,Closed,09:00–21:00,11:00–21:00,11:00–21:00,11:00–22:00,11:00–22:00,11:00–21:00,Lancaster,17601
Ariana's Ristorante Italiano,0x89c6a4040c368e77:0xcfb22b4448b806b4,40.244625,-75.24089409999999,4.1,134,Closed,4–7:30PM,3–7:30PM,3–7:30PM,3–8:30PM,3–8:30PM,4–7:30PM,North Wales,19454
III Illiano's Pizza,0x89c6be82433bbcf9:0xa5087224554cdde8,40.093406099999996,-75.2849938,4.5,167,10:00–21:00,10:00–21:00,10:00–21:00,10:00–21:00,10:00–22:00,10:00–22:00,11:30AM–9PM,Conshohocken,19428
Corleones' Bar & Grill,0x8834e1c2a7d2d797:0xc431aee04b9c0b8e,40.1855438,-79.8099198,4.3,157,Closed,11:00–21:00,11:00–21:00,11:00–21:00,11:00–21:00,11:00–21:00,Closed,Belle Vernon,15012
Main Street Pizzeria & Grille,0x89c6afb894b2b45d:0xbdcef49f44e72feb,40.1758802,-75.12361609999999,4.1,193,10:30AM–9PM,10:30AM–9PM,10:30AM–9PM,10:30AM–9PM,10:30AM–10PM,10:30AM–10PM,11:30AM–9PM,Horsham,19044
Antonio's Pizza,0x89c894316443e3c7:0xd971018b6e2e1346,40.149119999999996,-76.74917099999999,4.5,152,11:00–21:00,Closed,11:00–21:00,11:00–21:00,11:00–22:00,11:00–22:00,00:00–21:00,Goldsboro,17319
Tony Roni's Pizza Drexel Hill,0x89c6c1eafd2da089:0x574364b49777d654,39.9551316,-75.32275589999999,4.3,188,Closed,10:00–21:00,10:00–21:00,10:00–21:00,10AM–9:30PM,10AM–9:30PM,11AM–8:30PM,Drexel Hill,19026
Porfirio's Pizza And Pasta II,0x406f8c0f1a05dfad:0xf31ae43512747963,40.1562604,-74.8950236,4.0,78,10:30AM–10:45PM,10:00–22:00,10:00–22:00,10:00–22:00,10:00–23:00,10:00–23:00,10:00–22:00,Levittown,19056
Amadeo's,0x89c4df8856320b39:0x73317df3fe1ff592,41.369119399999995,-75.7110436,4.4,173,Closed,Closed,Closed,16:00–21:00,16:00–21:00,16:00–21:00,16:00–20:00,Moosic,18507
Pasquale's Italian Restaurant,0x89cc981f98d13f41:0x44e7b56835c15d82,40.912648,-78.99739199999999,4.3,123,06:00–14:00,06:00–14:00,06:00–19:00,06:00–19:00,06:00–20:00,06:00–20:00,Closed,Punxsutawney,15767
Joe's Pizzeria and Italian Restaurant,0x89ccb3a32b429557:0x982a2589edce4aaa,41.0023055,-79.32404869999999,4.6,393,11:00–21:00,11:00–21:00,11:00–21:00,11:00–21:00,11:00–22:00,11:00–22:00,11:00–21:00,New Bethlehem,16242
Valenti's,0x89c518d995db98b5:0x6a5182aaa4bd80a1,41.3213444,-75.8175261,4.6,157,Closed,5–9:30PM,5–9:30PM,5–9:30PM,5–9:30PM,5–9:30PM,17:00–21:00,Exeter,18643
Oreland Pizza,0x89c6ba5c194b67ab:0x55bab708a3bedf90,40.117044,-75.18336699999999,4.3,207,10:00–22:00,10:00–22:00,10:00–22:00,10:00–22:00,10:00–23:00,10:00–22:00,11:00–21:00,Oreland,19075
Napoli Restaurant,0x8835aca94c7c006f:0x7f0c203c796f881d,40.212334,-80.19287589999999,4.3,412,11:00–21:00,11AM–9:30PM,11AM–9:30PM,11AM–9:30PM,11:00–22:00,11:00–22:00,11:00–21:00,Washington,15301
Russo's Pizzeria,0x89c5b0c165c2607b:0x1136c52223875e3f,40.8250679,-75.87141419999999,4.2,137,Closed,10:30AM–9PM,10:30AM–9PM,10:30AM–9PM,10:30AM–10PM,10:30AM–10PM,11:30AM–8PM,Summit Hill,18250
Mt Gretna Pizzeria,0x89c8a74ef59fd369:0x7ca2f0652f11bc1f,40.249148999999996,-76.47079599999999,4.1,148,Closed,Closed,07:00–14:00,07:00–14:00,07:00–20:00,07:00–20:00,07:00–20:00,Mt Gretna,17064
Roberto's Pizza,0x89c8c2275a5c542b:0x62fd913eae2ab87d,40.240247,-76.918723,4.3,288,Closed,10AM–9:15PM,10AM–9:15PM,10AM–9:15PM,10AM–10:15PM,10AM–10:15PM,11AM–9:15PM,Camp Hill,17011
Peace A Pizza,0x89c6bff6ba412341:0x6e9cacfc39e28fe5,40.0249686,-75.3249062,3.1,18,11:00–21:00,11:00–21:00,11:00–21:00,11:00–21:00,11:00–21:00,11:00–21:00,11:00–21:00,Bryn Mawr,19010
Palermo Pizza & Italian Restaurant,0x89c63fed9a553997:0xff86196acb86d7aa,40.100482899999996,-76.0984098,4.5,778,11AM–10:30PM,11AM–10:30PM,11AM–10:30PM,11AM–10:30PM,11:00–00:00,11:00–00:00,11:00–22:00,New Holland,17557
Bambino's Pizza,0x89c157680c4bf731:0xf4c124782543d707,40.2112838,-74.7931815,4.4,108,10:30AM–10PM,10:30AM–10PM,10:30AM–10PM,10:30AM–10PM,10:30AM–11PM,10:30AM–11PM,11:30AM–10PM,Morrisville,19067
Don Giovanni's II,0x89c6b6818bf6e717:0x309dcab10c552680,40.0310864,-75.0628857,3.8,146,11:00–23:00,11:00–23:00,11:00–23:00,11:00–23:00,11:00–00:00,11:00–00:00,00:00–23:00,Philadelphia,19149
Brandywine Pizza,0x89c6c7d3cc682a2b:0xcb4502ee988c2ecd,39.963294999999995,-75.163146,3.2,147,Closed,5:30PM–1:45AM,5:30PM–1:45AM,5:30PM–1:45AM,5:30PM–3:45AM,5:30PM–3:45AM,5:30PM–1:45AM,Philadelphia,19130
Pizza Joe's,0x883477f9fe332df3:0x506f2ef40196262f,40.86073,-80.28210299999999,4.5,198,11:00–21:00,11:00–21:00,11:00–21:00,11:00–21:00,11:00–22:00,11:00–22:00,Closed,Ellwood City,16117
Mazzola's Italian Restaurante,0x89c5d66c5fe5e78d:0xbbdd513f941c844d,40.426697999999995,-75.82259599999999,4.1,187,Closed,10:30AM–8:30PM,10:30AM–8:30PM,10:30AM–8:30PM,10:30AM–9:30PM,10:30AM–9:30PM,11AM–8:30PM,Fleetwood,19522
Amici Vicinato,0x89c6bea808d7f7b9:0x47186e1184ad892,40.0914238,-75.2591882,4.1,78,11AM–8:30PM,11AM–8:30PM,11AM–8:30PM,11AM–8:30PM,11AM–9:30PM,11AM–9:30PM,12–8:30PM,Lafayette Hill,19444
O Sole Mio Restaurant,0x89c6c96fe2bf63e1:0x23f4627f2522c26e,39.9378287,-75.1482632,4.6,88,Closed,16:00–22:00,16:00–22:00,16:00–22:00,16:00–22:00,16:00–22:00,16:00–22:00,Philadelphia,19147
Dominick's Pizza Restaurant,0x89c403526755baad:0x968ba52667679747,40.3820848,-75.14678959999999,4.7,248,11:00–22:00,11:00–22:00,11:00–22:00,11:00–22:00,11:00–23:00,11:00–23:00,11:00–22:00,Doylestown,18902
Joe's Pizza (west end),0x89cfa890a82fdab9:0xc9298eb4e48c126a,41.2373361,-77.02272239999999,4.4,338,11:00–22:00,11:00–22:00,11:00–22:00,11:00–22:00,11:00–22:00,11:00–22:00,Closed,Williamsport,17701
Park Pizza,0x89cfa8e88ebe9fdd:0x9508132484bc218b,41.2429911,-77.0446602,4.5,265,16:00–22:00,16:00–22:00,16:00–22:00,16:00–22:00,16:00–23:00,16:00–23:00,16:00–22:00,Williamsport,17701
Elena Restaurant And Café,0x8834bdd983e849f5:0xfde11aa80b28ce9f,40.583158499999996,-79.70900619999999,4.6,178,Closed,15:00–20:00,15:00–20:00,15:00–20:00,15:00–20:00,15:00–20:00,Closed,Lower Burrell,15068
Pomodorino Pizza,0x89c41fb2aaa2a82b:0x2c4351f63428350a,40.363737199999996,-75.2967172,4.3,158,10AM–9:30PM,10AM–9:30PM,10AM–9:30PM,10AM–9:30PM,10AM–9:45PM,10AM–9:45PM,11AM–8:45PM,Perkasie,18944
Original Italian Pizza,0x89cbc635c350d163:0x8ca6036b39088798,40.2155087,-78.2440811,4.3,168,11:00–21:00,11:00–21:00,11:00–21:00,11:00–21:00,11:00–22:00,11:00–22:00,00:00–21:00,Saxton,16678
Original Italian Pizza,0x89cbe1ef569fcc33:0xe907d4cbb704be69,40.392183599999996,-77.9389601,4.3,57,11:00–21:00,11:00–21:00,11:00–21:00,11:00–21:00,11:00–21:00,11:00–21:00,11:00–21:00,Mapleton,17052
Holme Style Pizza,0x89c6b470cad2e5e3:0x3a1b4d2dcb6d0c49,40.056892,-75.027633,3.7,188,10:30AM–11:15PM,10:30AM–11:15PM,10:30AM–11:15PM,10:30AM–11:15PM,10:30AM–12:15PM,10:30AM–12:15PM,11:30AM–11:15PM,Philadelphia,19136
Enzo's Pizzeria,0x89c15327a9c7fa47:0xb27a908943fad3,40.173764999999996,-74.95450799999999,4.5,88,Closed,11:00–21:00,11:00–21:00,11:00–21:00,11:00–22:00,11:00–21:00,Closed,Langhorne,19047
King of Cheesy Pizza,0x89c6775856b3b557:0x2d43cdf42b50a3fa,40.336832199999996,-75.9260484,4.3,192,10:00–23:00,10:00–23:00,10:00–23:00,10:00–23:00,10:00–23:00,10:00–23:00,10:00–23:00,Reading,19601
Sal's Bravo Pizza of Limerick,0x89c685302d165923:0x55b02ebd5c3b437c,40.2380549,-75.5357334,4.7,324,11:00–21:00,11:00–21:00,11:00–21:00,11:00–21:00,11:00–21:00,11:00–21:00,11:00–20:00,Limerick,19468
booty's place,0x89c5a41ce36a1e27:0xfa51b90d235bdf74,40.9766185,-75.9772942,4.2,268,Closed,11:00–21:00,11:00–21:00,11:00–21:00,11:00–22:00,11:00–22:00,Closed,Hazleton,18202
C J's Pizza & Subs,0x89c51a56ece20511:0x2064d94a409a4b3b,41.245758099999996,-75.86103059999999,4.0,307,16:00–23:00,11:00–23:00,11:00–23:00,11:00–23:00,11:00–01:00,11:00–01:00,11:00–23:00,Wilkes-Barre,18702
Andy Perugino's Restaurant,0x89c51a1b452951bb:0xb68afc362330ad1,41.2795588,-75.8871163,4.3,238,Closed,16:00–20:00,16:00–20:00,16:00–20:00,16:00–21:00,16:00–21:00,Closed,Luzerne,18709
Messina's Italian Restaurant,0x89c87b9c6955b455:0x3a71d4ad336c9b48,39.7593519,-76.5906345,4.1,198,11AM–9:15PM,11AM–9:15PM,11AM–9:15PM,11AM–9:15PM,11AM–10:15PM,11AM–10:15PM,11AM–9:15PM,Stewartstown,17363
Pompei's Restaurant & Pizza,0x89c53094359ed17d:0xcce23e8d012ed4ad,41.5425614,-75.9626863,4.3,408,10:30AM–9:30PM,10:30AM–9:30PM,10:30AM–9:30PM,10:30AM–9:30PM,10:30AM–9:30PM,10:30AM–9:30PM,10:30AM–9:30PM,Tunkhannock,18657
Anthony's Pizza Of Skippack,0x89c69900bcaf5df1:0x128bb586b76572a5,40.2342742,-75.40070519999999,4.1,88,Closed,11:00–20:00,11:00–20:00,11:00–20:00,11:00–21:00,11:00–21:00,00:00–19:00,Skippack,19474
Rosanna's Restaurant,0x89c43e522f5e20eb:0x34752addb4d13da4,40.6220795,-75.3782109,4.4,258,11:00–21:00,11:00–21:00,11:00–21:00,11:00–21:00,11:00–22:00,11:00–21:00,Closed,Bethlehem,18018
Core de Roma,0x89c6f142e8153331:0x842fe959c7f5f72d,39.9631,-75.5997694,4.4,192,Closed,3–8:30PM,3–8:30PM,3–8:30PM,3–8:30PM,3–8:30PM,3–8:30PM,West Chester,19380
Broad Street Italian Cuisine & Pizzeria,0x89c6a18110b79771:0x6a057aca740a3701,40.3084949,-75.3217889,4.4,170,Closed,10:00–22:00,10:00–22:00,10:00–22:00,10:00–23:00,10:00–23:00,10:30AM–10PM,Souderton,18964
Maria's Italian Restaurant,0x8832c33900000001:0x70d91021f57c942f,41.6263122,-79.6740188,4.4,108,Closed,11AM–8:30PM,11AM–8:30PM,11AM–8:30PM,11AM–8:30PM,4–8:30PM,Closed,Titusville,16354
Bocelli Italian Restaurant,0x89c6bcbbad64a1bd:0xfd367b014093565a,40.1848932,-75.2568154,4.7,157,Closed,11:30AM–2:30PM,11:30AM–2:30PM,11:30AM–2:30PM,4:30–9:30PM,4:30–9:30PM,4–8:30PM,Gwynedd Valley,19437
Nino's Pizza & Italian Restaurant,0x89cbf585e2d8526b:0x499b13f73adaee1,40.672596,-78.23714439999999,4.3,128,11:00–22:00,11:00–22:00,11:00–22:00,11:00–22:00,11:00–23:00,11:00–23:00,11:00–21:00,Tyrone,16686
Sport's Pizza,0x89c1572ea9310aaf:0x39b1c1f32f99e03c,40.200908399999996,-74.82008119999999,4.1,138,11:00–23:00,11:00–23:00,11:00–23:00,11:00–22:00,11:00–23:00,11:00–23:00,11:00–23:00,Morrisville,19067
Ristorante La Buca,0x89c6c89d5c8151cb:0xfb9d11d32967952,39.9469845,-75.15399479999999,4.3,206,Closed,17:00–21:00,17:00–21:00,17:00–21:00,17:00–21:00,17:00–21:00,Closed,Philadelphia,19106
Marilyn's on Main,0x88353e30e76b8f43:0xc978fb9ec6b6a6d8,39.9010848,-79.7246017,4.5,236,Closed,Closed,16:00–22:00,16:00–22:00,16:00–00:00,12:00–02:00,00:00–19:00,Uniontown,15401
Tuscana Pizza & Pasta,0x89c46a2f173349af:0x9c2579a22c146363,40.732451,-75.31201999999999,4.3,188,9:30AM–10PM,9:30AM–10PM,9:30AM–10PM,9:30AM–10PM,9:30AM–10PM,9:30AM–10PM,9:30AM–10PM,Nazareth,18064
NYPD Pizza,0x89c6c628a23aa181:0xaf7680b4f1f39346,39.948944399999995,-75.15904429999999,4.3,347,10:00–20:00,10:00–20:00,10:00–20:00,10:00–20:00,10:00–20:00,10:00–20:00,10:00–20:00,Philadelphia,19107
Margarita's Pizzeria,0x89cea898f91bf4f3:0x2acb377da57db10f,40.7919847,-77.8620558,4.7,158,10:30AM–7PM,10:30AM–7PM,10:30AM–7PM,10:30AM–7PM,10:30AM–7PM,Closed,Closed,State College,16801
Infinito's Pizza Buffet,0x89c677a119382175:0xaed47433b1d90afb,40.3796609,-75.9254076,4.3,778,16:00–20:00,16:00–20:00,16:00–20:00,16:00–20:00,16:00–20:00,00:00–20:00,00:00–20:00,Reading,19605
Gianni's Pizza,0x89c6ac88f451bd83:0x486baa40e01dce8b,40.209572,-75.0113129,4.6,228,10:30AM–10PM,10:30AM–10PM,10:30AM–10PM,10:30AM–10PM,10:30AM–10:30PM,10:30AM–10:30PM,10:30AM–10PM,Richboro,18954
Donna Lynn's Pizza,0x8834c17763a8fff9:0x9ea26996915b6635,40.4272651,-79.6913223,4.3,68,11:00–22:00,11:00–22:00,11:00–22:00,11:00–22:00,11:00–23:00,11:00–23:00,15:00–22:00,Murrysville,15668
Pizza Village IV,0x89c4407dee796495:0x7becab0aba7d90c5,40.674609499999995,-75.38711099999999,4.3,188,11:00–22:00,11:00–22:00,11:00–22:00,11:00–22:00,11:00–23:00,11:00–22:00,11:00–21:00,Bethlehem,18017
Claysburg Pizza,0x89cbbb5dad8be211:0xf3b967b213fdb4d5,40.2997325,-78.45322159999999,4.6,595,Closed,11:00–22:00,11:00–22:00,11:00–22:00,11:00–23:00,11:00–23:00,15:00–22:00,Claysburg,16625
Perry Di Pizza Man's,0x883495c0f45083e7:0x7934500e9f9b7b5d,40.5818535,-79.7115752,4.2,208,11:00–22:00,11:00–22:00,11:00–22:00,11:00–22:00,11:00–23:00,11:00–23:00,00:00–22:00,Lower Burrell,15068
Spello,0x8834897f43ac3751:0x12c6dfd9d4d2c670,40.6874081,-80.0564174,4.1,136,Closed,16:00–21:00,16:00–21:00,16:00–21:00,16:00–22:00,16:00–22:00,11:00–14:00,Mars,16046
Aj Bambino,0x88345db0a9218f87:0x59189c3e67e846c,40.5120633,-80.2152809,3.5,178,10:00–03:00,10:00–03:00,10:00–03:00,10:00–03:00,10:00–03:00,10:00–03:00,10:00–00:00,Coraopolis,15108
Two Guys From Italy,0x89c4b49810b05805:0xd50524a89a44ce85,41.551812299999995,-75.2277196,4.2,378,11AM–8:30PM,11AM–8:30PM,11AM–8:30PM,11AM–8:30PM,11AM–8:30PM,11AM–8:30PM,11AM–8:30PM,Honesdale,18431
Spatola's Pizza,0x89c692d4db518f49:0xd0a272867f03cc68,40.041464999999995,-75.485005,4.6,145,10:30AM–9PM,10:30AM–9PM,10:30AM–9PM,10:30AM–9PM,10:30AM–10PM,10:30AM–10PM,11:00–21:00,Paoli,19301
Alessio's Seafood Grille,0x89c6a8b4a4121c5d:0xcc0da87c511ced55,40.2369,-75.136375,4.3,358,Closed,11:00–21:00,11:00–21:00,11:00–21:00,11:00–22:00,11:00–22:00,11:00–21:00,Warrington,18976
Gia Visto,0x8834ea388dfcb97d:0x40793a8eec4604d3,40.4428189,-79.7705053,4.0,68,Closed,11:30AM–7:30PM,11:30AM–7:30PM,11:30AM–7:30PM,11:30AM–7:30PM,11:30AM–7:30PM,Closed,Monroeville,15146
Frank's Trattoria,0x89c42396ac800f25:0xb6d59b6e582007d7,40.4605155,-75.3721193,4.1,208,11:00–21:00,11:00–21:00,11:00–21:00,11:00–21:00,11:00–22:00,11:00–22:00,11:00–21:00,Quakertown,18951
AV Restaurant,0x89c4ded44c83783b:0x2331fd75d09cea5,41.4112132,-75.6641748,4.7,227,Closed,Closed,5–8:30PM,5–8:30PM,5–8:30PM,5–8:30PM,Closed,Scranton,18503
Joseph's Restaurants,0x89c4da0c8e5ff767:0x437970b36f564d3f,41.478819099999996,-75.5996282,4.3,252,16:00–21:00,16:00–21:00,16:00–21:00,16:00–21:00,16:00–21:00,08:00–21:00,08:00–20:00,Peckville,18452
Sambuca Grille,0x89c4ded5c5b280ef:0xef4102921b8cf281,41.410323399999996,-75.6652721,4.8,197,4:30–9PM,4:30–9PM,4:30–9PM,4:30–9PM,4:30–10PM,17:00–22:00,Closed,Scranton,18503
Stacey's Avenue,0x89c6c654686b7ac7:0xc8b8391e316b5c5c,39.9603387,-75.19674619999999,3.9,108,10:00–22:00,10:00–22:00,10:00–22:00,10:00–22:00,10:00–23:00,11:00–23:00,11:00–22:00,Philadelphia,19104
Benito's Restaurant & Lounge,0x89c5a46d343d490b:0xf5252384ad331879,40.960954,-75.9783357,4.6,88,10:00–21:00,10:00–21:00,10:00–21:00,10:00–21:00,10:00–21:00,10:00–21:00,11:00–21:00,Hazleton,18201
Paola's,0x89c694df63ce3151:0xda20bc5a0f13893f,40.0451586,-75.3880058,4.7,157,Closed,11:00–20:00,11:00–20:00,11:00–20:00,11:00–21:00,11:00–21:00,11:00–20:00,Wayne,19087
New Wayne Pizza,0x89c694df55946d45:0x2d96f486cfc24488,40.043583,-75.38777499999999,4.5,125,11:00–22:00,11:00–22:00,11:00–22:00,11:00–22:00,11:00–23:00,11:00–23:00,00:00–22:00,Wayne,19087
New York Pizza & Pasta,0x883525265de18081:0x6af9d087796ccdcb,40.0196164,-79.60256179999999,4.5,258,11AM–7:15PM,11AM–7:15PM,11AM–7:15PM,11AM–7:15PM,10AM–8:15PM,10AM–8:15PM,11AM–7:15PM,Connellsville,15425
Little Italy V,0x89c9a8ef9a0c49f3:0x7fdb3d97ef660eee,39.887594899999996,-77.3448883,4.4,158,11AM–9:30PM,11AM–9:30PM,11AM–9:30PM,11AM–9:30PM,11:00–22:00,11:00–22:00,Closed,Biglerville,17307
Level Up Pizza Bar & Grill,0x89c89c6dd0135913:0x3b339789bd3b7b11,40.0315215,-76.5033009,4.2,156,10:30AM–9AM,10:30AM–9AM,10:30AM–9AM,10:30AM–9AM,10:30AM–9:30AM,10:30AM–9:30AM,12PM–8:30AM,Columbia,17512
Original Italian Pizza,0x89cb91a6f25f382b:0x7d8961c20b0b5b8f,40.5000509,-78.4149008,4.4,214,4–8:30PM,11AM–8:30PM,11AM–8:30PM,11AM–8:30PM,11:00–22:00,11:00–21:00,00:00–21:00,Altoona,16601
Peppi's Pizza and Pasta,0x89c153bb21de48d1:0x9d0083207b072bae,40.1821403,-74.9049987,4.5,96,10:30AM–9PM,10:30AM–9PM,10:30AM–9PM,10:30AM–9PM,10:30AM–10PM,10:30AM–10PM,10:30AM–9PM,Langhorne,19047
Leola Pizza,0x89c63dd34e6438b3:0x8708c63aef6b433a,40.088309699999996,-76.1850856,4.6,167,Closed,10:30AM–8PM,10:30AM–8PM,10:30AM–8PM,10:30AM–9PM,11:00–21:00,11:30AM–7:30PM,Leola,17540
Carmella's,0x89c4deac62966233:0x48688f3cbde2edc,41.407142,-75.6274569,4.7,77,Closed,16:00–21:00,16:00–21:00,16:00–21:00,16:00–21:00,16:00–21:00,15:00–20:00,Scranton,18510
Branzino Italian Ristorante,0x89c6c63a57440181:0xd2a964ae3b5d2cb0,39.948004999999995,-75.169365,4.3,157,Closed,5–8:45PM,17:00–21:00,17:00–21:00,17:00–22:00,17:00–22:00,5–8:30PM,Philadelphia,19103
Mama's Italian Grill,0x89c431edc37a23fd:0x4d7fa76b7a5e77dc,40.5511333,-75.607552,4.2,313,9AM–9:30PM,9AM–9:30PM,9AM–9:30PM,9AM–9:30PM,09:00–22:00,10:00–22:00,11AM–8:30PM,Breinigsville,18031
Terry's Italian Restaurant,0x89c46d0962fc1a05:0xf7e73bea7e782787,40.6778262,-75.183841,4.5,166,Closed,Closed,16:00–21:00,16:00–21:00,16:00–21:00,16:00–21:00,16:00–21:00,Easton,18042
Tonino's Pizza,0x89c488aec1d409f5:0xa264710caf3518f0,41.0189338,-75.17985569999999,4.5,158,11:00–22:00,11:00–22:00,11:00–22:00,11:00–22:00,11:00–23:00,11:00–23:00,11:00–23:00,East Stroudsburg,18301
Taorminas Pizza & Pasta,0x89c6ae9730efb75b:0xf1358d222830a33a,40.202959,-75.076456,4.6,374,Closed,11:00–21:00,11:00–21:00,11:00–21:00,11:00–22:00,11:00–22:00,00:00–21:00,Ivyland,18974
Marco's Pizzeria,0x89c15494ce367215:0xbafb1d9664308fac,40.230258299999996,-74.9413442,3.6,108,10:00–22:00,10:00–22:00,10:00–22:00,10:00–22:00,10:00–23:00,10:00–23:00,11:00–21:00,Newtown,18940
Franks Pizza & Chicken Inc,0x8834f3066d450179:0xf9e3e84206c25055,40.486731,-79.973503,4.4,248,11:00–22:00,11:00–22:00,11:00–22:00,11:00–22:00,11:00–22:00,11:00–22:00,11:00–22:00,Millvale,15209
Giovanni's Italian Restaurant,0x89c61296225d3cf5:0xac8515c95ed2d1cc,40.265640999999995,-76.109299,4.6,318,Closed,11AM–9:30PM,11AM–9:30PM,11AM–9:30PM,11:00–22:00,11:00–22:00,11:00–21:00,Reinholds,17569
Positano Ristorante,0x89c6c087abc8ca21:0x94a18737415fdc56,40.008548999999995,-75.291938,4.0,57,Closed,17:00–22:00,17:00–22:00,17:00–22:00,17:00–22:00,17:00–22:00,4–9:30PM,Ardmore,19003
Bistecca By Il Mulino,0x89c48d3f0c2f8f13:0x93615e6cdbc02164,41.1130579,-75.3213138,3.7,58,5–9:30PM,5–9:30PM,5–9:30PM,5–9:30PM,5–10:30PM,5–10:30PM,5–9:30PM,Mt Pocono,18344
Original Dominick's Pizzeria Washington Crossing PA,0x89c3fde2b07e0ecd:0x75a7da5db049dc42,40.2922739,-74.8723396,4.6,305,11:00–21:00,11:00–21:00,11:00–21:00,11:00–21:00,11:00–22:00,11:00–22:00,11:00–22:00,Washington Crossing,18977
Gargano's Pizzeria & Deli,0x89c623d046152a1b:0x344950241961f13,40.09988,-76.353894,4.6,118,11:00–20:00,11:00–20:00,11:00–20:00,11:00–20:00,11:00–21:00,11:00–20:00,Closed,East Petersburg,17520
Pizza Delight Harrisburg,0x89c8bf23989d42af:0xf33be4774b8e0605,40.2634858,-76.78809849999999,4.3,185,10:00–22:00,10:00–22:00,10:00–22:00,10:00–22:00,10:00–23:00,10:00–23:00,11:00–22:00,Harrisburg,17111
